{"displayFieldName":"","fieldAliases":{"OBJECTID":"OBJECTID","School_Name":"School Name","Street_Address":"Street Address","Suburb":"Suburb","Sector":"Sector","Type_":"Type","LAT":"LAT","LONG_":"LONG","BUFF_DIST":"BUFF_DIST","ORIG_FID":"ORIG_FID","Shape_Length":"Shape_Length","Shape_Area":"Shape_Area"},"geometryType":"esriGeometryPolygon","spatialReference":{"wkid":3395,"latestWkid":3395},"fields":[{"name":"OBJECTID","type":"esriFieldTypeOID","alias":"OBJECTID"},{"name":"School_Name","type":"esriFieldTypeString","alias":"School Name","length":8000},{"name":"Street_Address","type":"esriFieldTypeString","alias":"Street Address","length":8000},{"name":"Suburb","type":"esriFieldTypeString","alias":"Suburb","length":8000},{"name":"Sector","type":"esriFieldTypeString","alias":"Sector","length":8000},{"name":"Type_","type":"esriFieldTypeString","alias":"Type","length":8000},{"name":"LAT","type":"esriFieldTypeDouble","alias":"LAT"},{"name":"LONG_","type":"esriFieldTypeDouble","alias":"LONG"},{"name":"BUFF_DIST","type":"esriFieldTypeDouble","alias":"BUFF_DIST"},{"name":"ORIG_FID","type":"esriFieldTypeInteger","alias":"ORIG_FID"},{"name":"Shape_Length","type":"esriFieldTypeDouble","alias":"Shape_Length"},{"name":"Shape_Area","type":"esriFieldTypeDouble","alias":"Shape_Area"}],"features":[{"attributes":{"OBJECTID":1,"School_Name":"Franklin Early Childhood School","Street_Address":"Oodgeroo Avenue","Suburb":"Franklin","Sector":"Government","Type_":"Early Childhood School","LAT":-35.200460999999997,"LONG_":149.14132699999999,"BUFF_DIST":100,"ORIG_FID":1,"Shape_Length":628.31853071795865,"Shape_Area":31415.926535897932},"geometry":{"curveRings":[[[16602336.5779,-4166425.5993000008],{"a":[[16602336.5779,-4166425.5993000008],[16602336.5779,-4166525.5993000008],0,1]}]]}},{"attributes":{"OBJECTID":2,"School_Name":"Isabella Plains Early Childhood School","Street_Address":"Ellerston Avenue","Suburb":"Isabella Plains","Sector":"Government","Type_":"Early Childhood School","LAT":-35.428716000000001,"LONG_":149.08949699999999,"BUFF_DIST":100,"ORIG_FID":2,"Shape_Length":628.31853071795865,"Shape_Area":31415.926535897932},"geometry":{"curveRings":[[[16596566.888700001,-4197425.6581000015],{"a":[[16596566.888700001,-4197425.6581000015],[16596566.888700001,-4197525.6581000015],0,1]}]]}},{"attributes":{"OBJECTID":3,"School_Name":"Lyons Early Childhood School","Street_Address":"Tarraleah Crescent","Suburb":"Lyons","Sector":"Government","Type_":"Early Childhood School","LAT":-35.341633000000002,"LONG_":149.07624300000001,"BUFF_DIST":100,"ORIG_FID":3,"Shape_Length":628.31853071795865,"Shape_Area":31415.926535897932},"geometry":{"curveRings":[[[16595091.460100003,-4185588.2120000012],{"a":[[16595091.460100003,-4185588.2120000012],[16595091.460100003,-4185688.2120000012],0,1]}]]}},{"attributes":{"OBJECTID":4,"School_Name":"Narrabundah Early Childhood School","Street_Address":"Kootara Crescent","Suburb":"Narrabundah","Sector":"Government","Type_":"Early Childhood School","LAT":-35.329016000000003,"LONG_":149.15069800000001,"BUFF_DIST":100,"ORIG_FID":4,"Shape_Length":628.31853071795865,"Shape_Area":31415.926535897932},"geometry":{"curveRings":[[[16603379.752800003,-4183874.2146999985],{"a":[[16603379.752800003,-4183874.2146999985],[16603379.752800003,-4183974.2146999985],0,1]}]]}},{"attributes":{"OBJECTID":5,"School_Name":"O'Connor Cooperative School","Street_Address":"MacPherson Street","Suburb":"O'Connor","Sector":"Government","Type_":"Early Childhood School","LAT":-35.261994000000001,"LONG_":149.12073599999999,"BUFF_DIST":100,"ORIG_FID":5,"Shape_Length":628.31853071795865,"Shape_Area":31415.926535897932},"geometry":{"curveRings":[[[16600044.398199998,-4174773.9145000018],{"a":[[16600044.398199998,-4174773.9145000018],[16600044.398199998,-4174873.9145000018],0,1]}]]}},{"attributes":{"OBJECTID":6,"School_Name":"Southern Cross Early Childhood School","Street_Address":"Wirraway Crescent","Suburb":"Scullin","Sector":"Government","Type_":"Early Childhood School","LAT":-35.232767000000003,"LONG_":149.038363,"BUFF_DIST":100,"ORIG_FID":6,"Shape_Length":628.31853071795865,"Shape_Area":31415.926535897932},"geometry":{"curveRings":[[[16590874.6778,-4170807.8275999986],{"a":[[16590874.6778,-4170807.8275999986],[16590874.6778,-4170907.8275999986],0,1]}]]}},{"attributes":{"OBJECTID":7,"School_Name":"Amaroo School","Street_Address":"Katherine Avenue","Suburb":"Amaroo","Sector":"Government","Type_":"Preschool to Year 10","LAT":-35.163986000000001,"LONG_":149.129705,"BUFF_DIST":100,"ORIG_FID":7,"Shape_Length":628.31853071795865,"Shape_Area":31415.926535897932},"geometry":{"curveRings":[[[16601042.822800003,-4161479.9697999991],{"a":[[16601042.822800003,-4161479.9697999991],[16601042.822800003,-4161579.9697999991],0,1]}]]}},{"attributes":{"OBJECTID":8,"School_Name":"Caroline Chisholm School","Street_Address":"Hambidge Crescent","Suburb":"Chisholm","Sector":"Government","Type_":"Preschool to Year 10","LAT":-35.418154999999999,"LONG_":149.12204700000001,"BUFF_DIST":100,"ORIG_FID":8,"Shape_Length":628.31853071795865,"Shape_Area":31415.926535897932},"geometry":{"curveRings":[[[16600190.338100001,-4195989.3832999989],{"a":[[16600190.338100001,-4195989.3832999989],[16600190.338100001,-4196089.3832999989],0,1]}]]}},{"attributes":{"OBJECTID":9,"School_Name":"Gold Creek School","Street_Address":"Kelleway Street","Suburb":"Nicholls","Sector":"Government","Type_":"Preschool to Year 10","LAT":-35.181274999999999,"LONG_":149.10026199999999,"BUFF_DIST":100,"ORIG_FID":9,"Shape_Length":628.31853071795865,"Shape_Area":31415.926535897932},"geometry":{"curveRings":[[[16597765.243000001,-4163823.8986999989],{"a":[[16597765.243000001,-4163823.8986999989],[16597765.243000001,-4163923.8986999989],0,1]}]]}},{"attributes":{"OBJECTID":10,"School_Name":"Harrison School","Street_Address":"Wimmera Street","Suburb":"Harrison","Sector":"Government","Type_":"Preschool to Year 10","LAT":-35.1975306,"LONG_":149.15164229999999,"BUFF_DIST":100,"ORIG_FID":10,"Shape_Length":628.31853071795865,"Shape_Area":31415.926535897932},"geometry":{"curveRings":[[[16603484.871799998,-4166028.1849000007],{"a":[[16603484.871799998,-4166028.1849000007],[16603484.871799998,-4166128.1849000007],0,1]}]]}},{"attributes":{"OBJECTID":11,"School_Name":"Kingsford Smith School","Street_Address":"Cnr Hardwick Cres and Starke St","Suburb":"Holt","Sector":"Government","Type_":"Preschool to Year 10","LAT":-35.227531999999997,"LONG_":149.02100100000001,"BUFF_DIST":100,"ORIG_FID":11,"Shape_Length":628.31853071795865,"Shape_Area":31415.926535897932},"geometry":{"curveRings":[[[16588941.948799998,-4170097.5934000015],{"a":[[16588941.948799998,-4170097.5934000015],[16588941.948799998,-4170197.5934000015],0,1]}]]}},{"attributes":{"OBJECTID":12,"School_Name":"Namadgi School","Street_Address":"O'Halloran Circuit","Suburb":"Kambah","Sector":"Government","Type_":"Preschool to Year 10","LAT":-35.393841999999999,"LONG_":149.06443100000001,"BUFF_DIST":100,"ORIG_FID":12,"Shape_Length":628.31853071795865,"Shape_Area":31415.926535897932},"geometry":{"curveRings":[[[16593776.554300003,-4192683.5855999999],{"a":[[16593776.554300003,-4192683.5855999999],[16593776.554300003,-4192783.5855999999],0,1]}]]}},{"attributes":{"OBJECTID":13,"School_Name":"Wanniassa School","Street_Address":"Sternberg Crescent","Suburb":"Wanniassa","Sector":"Government","Type_":"Preschool to Year 10","LAT":-35.394992000000002,"LONG_":149.08636300000001,"BUFF_DIST":100,"ORIG_FID":13,"Shape_Length":628.31853071795865,"Shape_Area":31415.926535897932},"geometry":{"curveRings":[[[16596218.013400003,-4192839.9265000001],{"a":[[16596218.013400003,-4192839.9265000001],[16596218.013400003,-4192939.9265000001],0,1]}]]}},{"attributes":{"OBJECTID":14,"School_Name":"Canberra College","Street_Address":"Launceston Street","Suburb":"Phillip","Sector":"Government","Type_":"Colleges Year 11-12","LAT":-35.340387,"LONG_":149.08867599999999,"BUFF_DIST":100,"ORIG_FID":14,"Shape_Length":628.31853071795865,"Shape_Area":31415.926535897932},"geometry":{"curveRings":[[[16596475.495399997,-4185418.9329999983],{"a":[[16596475.495399997,-4185418.9329999983],[16596475.495399997,-4185518.9329999983],0,1]}]]}},{"attributes":{"OBJECTID":15,"School_Name":"Dickson College","Street_Address":"Phillip Avenue","Suburb":"Dickson","Sector":"Government","Type_":"Colleges Year 11-12","LAT":-35.249000000000002,"LONG_":149.15299999999999,"BUFF_DIST":100,"ORIG_FID":15,"Shape_Length":628.31853071795865,"Shape_Area":31415.926535897932},"geometry":{"curveRings":[[[16603636.010300003,-4173010.4580999985],{"a":[[16603636.010300003,-4173010.4580999985],[16603636.010300003,-4173110.4580999985],0,1]}]]}},{"attributes":{"OBJECTID":16,"School_Name":"Erindale College","Street_Address":"McBryde Crescent","Suburb":"Wanniassa","Sector":"Government","Type_":"Colleges Year 11-12","LAT":-35.403008,"LONG_":149.09717000000001,"BUFF_DIST":100,"ORIG_FID":16,"Shape_Length":628.31853071795865,"Shape_Area":31415.926535897932},"geometry":{"curveRings":[[[16597421.043099999,-4193929.7531000003],{"a":[[16597421.043099999,-4193929.7531000003],[16597421.043099999,-4194029.7531000003],0,1]}]]}},{"attributes":{"OBJECTID":17,"School_Name":"Gungahlin College","Street_Address":"Gozzard Street","Suburb":"Gungahlin","Sector":"Government","Type_":"Colleges Year 11-12","LAT":-35.185515000000002,"LONG_":149.13135700000001,"BUFF_DIST":100,"ORIG_FID":17,"Shape_Length":628.31853071795865,"Shape_Area":31415.926535897932},"geometry":{"curveRings":[[[16601226.722499996,-4164398.8068000004],{"a":[[16601226.722499996,-4164398.8068000004],[16601226.722499996,-4164498.8068000004],0,1]}]]}},{"attributes":{"OBJECTID":18,"School_Name":"Hawker College","Street_Address":"Murranji Street","Suburb":"Hawker","Sector":"Government","Type_":"Colleges Year 11-12","LAT":-35.245207000000001,"LONG_":149.03363400000001,"BUFF_DIST":100,"ORIG_FID":18,"Shape_Length":628.31853071795865,"Shape_Area":31415.926535897932},"geometry":{"curveRings":[[[16590348.248000003,-4172495.7520000003],{"a":[[16590348.248000003,-4172495.7520000003],[16590348.248000003,-4172595.7520000003],0,1]}]]}},{"attributes":{"OBJECTID":19,"School_Name":"University of Canberra - Senior Secondary College Lake Ginninderra","Street_Address":"Emu Bank","Suburb":"Belconnen","Sector":"Government","Type_":"Colleges Year 11-12","LAT":-35.238771,"LONG_":149.073894,"BUFF_DIST":100,"ORIG_FID":19,"Shape_Length":628.31853071795865,"Shape_Area":31415.926535897932},"geometry":{"curveRings":[[[16594829.970700003,-4171622.4492000006],{"a":[[16594829.970700003,-4171622.4492000006],[16594829.970700003,-4171722.4492000006],0,1]}]]}},{"attributes":{"OBJECTID":20,"School_Name":"Lake Tuggeranong College","Street_Address":"Cowlishaw Street","Suburb":"Tuggeranong","Sector":"Government","Type_":"Colleges Year 11-12","LAT":-35.413200000000003,"LONG_":149.06793400000001,"BUFF_DIST":100,"ORIG_FID":20,"Shape_Length":628.31853071795865,"Shape_Area":31415.926535897932},"geometry":{"curveRings":[[[16594166.506499998,-4195315.5786000006],{"a":[[16594166.506499998,-4195315.5786000006],[16594166.506499998,-4195415.5786000006],0,1]}]]}},{"attributes":{"OBJECTID":21,"School_Name":"Melba Copland Secondary School - Copland Campus Years 11 - 12","Street_Address":"Copland Drive","Suburb":"Melba","Sector":"Government","Type_":"Colleges Year 11-12","LAT":-35.212193999999997,"LONG_":149.05916300000001,"BUFF_DIST":100,"ORIG_FID":21,"Shape_Length":628.31853071795865,"Shape_Area":31415.926535897932},"geometry":{"curveRings":[[[16593190.123199999,-4168016.9479999989],{"a":[[16593190.123199999,-4168016.9479999989],[16593190.123199999,-4168116.9479999989],0,1]}]]}},{"attributes":{"OBJECTID":22,"School_Name":"Narrabundah College","Street_Address":"Jerrabomberra Avenue","Suburb":"Narrabundah","Sector":"Government","Type_":"Colleges Year 11-12","LAT":-35.336027999999999,"LONG_":149.147301,"BUFF_DIST":100,"ORIG_FID":22,"Shape_Length":628.31853071795865,"Shape_Area":31415.926535897932},"geometry":{"curveRings":[[[16603001.600500003,-4184826.7492000014],{"a":[[16603001.600500003,-4184826.7492000014],[16603001.600500003,-4184926.7492000014],0,1]}]]}},{"attributes":{"OBJECTID":23,"School_Name":"Ainslie School","Street_Address":"Donaldson Street","Suburb":"Braddon","Sector":"Government","Type_":"Primary School","LAT":-35.273729000000003,"LONG_":149.13963200000001,"BUFF_DIST":100,"ORIG_FID":23,"Shape_Length":628.31853071795865,"Shape_Area":31415.926535897932},"geometry":{"curveRings":[[[16602147.8913,-4176366.7531999983],{"a":[[16602147.8913,-4176366.7531999983],[16602147.8913,-4176466.7531999983],0,1]}]]}},{"attributes":{"OBJECTID":24,"School_Name":"Ainslie North Primary","Street_Address":"Majura Avenue","Suburb":"Ainslie","Sector":"Government","Type_":"Primary School","LAT":-35.254797000000003,"LONG_":149.145509,"BUFF_DIST":100,"ORIG_FID":24,"Shape_Length":628.31853071795865,"Shape_Area":31415.926535897932},"geometry":{"curveRings":[[[16602802.115999997,-4173797.1519000009],{"a":[[16602802.115999997,-4173797.1519000009],[16602802.115999997,-4173897.1519000009],0,1]}]]}},{"attributes":{"OBJECTID":25,"School_Name":"Amaroo School","Street_Address":"Katherine Avenue","Suburb":"Amaroo","Sector":"Government","Type_":"Primary School","LAT":-35.163986000000001,"LONG_":149.129705,"BUFF_DIST":100,"ORIG_FID":25,"Shape_Length":628.31853071795865,"Shape_Area":31415.926535897932},"geometry":{"curveRings":[[[16601042.822800003,-4161479.9697999991],{"a":[[16601042.822800003,-4161479.9697999991],[16601042.822800003,-4161579.9697999991],0,1]}]]}},{"attributes":{"OBJECTID":26,"School_Name":"Aranda Primary","Street_Address":"Banambila Crescent","Suburb":"Aranda","Sector":"Government","Type_":"Primary School","LAT":-35.255999000000003,"LONG_":149.079914,"BUFF_DIST":100,"ORIG_FID":26,"Shape_Length":628.31853071795865,"Shape_Area":31415.926535897932},"geometry":{"curveRings":[[[16595500.114,-4173960.2787999995],{"a":[[16595500.114,-4173960.2787999995],[16595500.114,-4174060.2787999995],0,1]}]]}},{"attributes":{"OBJECTID":27,"School_Name":"Arawang Primary","Street_Address":"Nemarang Crescent","Suburb":"Waramanga","Sector":"Government","Type_":"Primary School","LAT":-35.355016999999997,"LONG_":149.059719,"BUFF_DIST":100,"ORIG_FID":27,"Shape_Length":628.31853071795865,"Shape_Area":31415.926535897932},"geometry":{"curveRings":[[[16593252.016900003,-4187406.6999999993],{"a":[[16593252.016900003,-4187406.6999999993],[16593252.016900003,-4187506.6999999993],0,1]}]]}},{"attributes":{"OBJECTID":28,"School_Name":"Bonython Primary","Street_Address":"Hurtle Avenue","Suburb":"Bonython","Sector":"Government","Type_":"Primary School","LAT":-35.431846,"LONG_":149.082604,"BUFF_DIST":100,"ORIG_FID":28,"Shape_Length":628.31853071795865,"Shape_Area":31415.926535897932},"geometry":{"curveRings":[[[16595799.5634,-4197851.3684],{"a":[[16595799.5634,-4197851.3684],[16595799.5634,-4197951.3684],0,1]}]]}},{"attributes":{"OBJECTID":29,"School_Name":"Calwell Primary","Street_Address":"Casey Crescent","Suburb":"Calwell","Sector":"Government","Type_":"Primary School","LAT":-35.438412,"LONG_":149.10925399999999,"BUFF_DIST":100,"ORIG_FID":29,"Shape_Length":628.31853071795865,"Shape_Area":31415.926535897932},"geometry":{"curveRings":[[[16598766.227799997,-4198744.4620999992],{"a":[[16598766.227799997,-4198744.4620999992],[16598766.227799997,-4198844.4620999992],0,1]}]]}},{"attributes":{"OBJECTID":30,"School_Name":"Campbell Primary","Street_Address":"Chauvel Street","Suburb":"Campbell","Sector":"Government","Type_":"Primary School","LAT":-35.290270999999997,"LONG_":149.15609900000001,"BUFF_DIST":100,"ORIG_FID":30,"Shape_Length":628.31853071795865,"Shape_Area":31415.926535897932},"geometry":{"curveRings":[[[16603980.989399999,-4178612.4607999995],{"a":[[16603980.989399999,-4178612.4607999995],[16603980.989399999,-4178712.4607999995],0,1]}]]}},{"attributes":{"OBJECTID":31,"School_Name":"Chapman Primary","Street_Address":"Perry Drive","Suburb":"Chapman","Sector":"Government","Type_":"Primary School","LAT":-35.356878000000002,"LONG_":149.04307900000001,"BUFF_DIST":100,"ORIG_FID":31,"Shape_Length":628.31853071795865,"Shape_Area":31415.926535897932},"geometry":{"curveRings":[[[16591399.660499997,-4187659.5786999986],{"a":[[16591399.660499997,-4187659.5786999986],[16591399.660499997,-4187759.5786999986],0,1]}]]}},{"attributes":{"OBJECTID":32,"School_Name":"Charles Conder Primary","Street_Address":"Tom Roberts Avenue","Suburb":"Conder","Sector":"Government","Type_":"Primary School","LAT":-35.464883,"LONG_":149.09844899999999,"BUFF_DIST":100,"ORIG_FID":32,"Shape_Length":628.31853071795865,"Shape_Area":31415.926535897932},"geometry":{"curveRings":[[[16597563.420699999,-4202345.7382000014],{"a":[[16597563.420699999,-4202345.7382000014],[16597563.420699999,-4202445.7382000014],0,1]}]]}},{"attributes":{"OBJECTID":33,"School_Name":"Charles Weston School","Street_Address":"Woodberry Avenue","Suburb":"Coombs","Sector":"Government","Type_":"Primary School","LAT":-35.322603000000001,"LONG_":149.04284799999999,"BUFF_DIST":100,"ORIG_FID":33,"Shape_Length":628.31853071795865,"Shape_Area":31415.926535897932},"geometry":{"curveRings":[[[16591373.945699997,-4183003.123399999],{"a":[[16591373.945699997,-4183003.123399999],[16591373.945699997,-4183103.123399999],0,1]}]]}},{"attributes":{"OBJECTID":34,"School_Name":"Charnwood-Dunlop School","Street_Address":"Bettington Circuit","Suburb":"Charnwood","Sector":"Government","Type_":"Primary School","LAT":-35.198681999999998,"LONG_":149.036203,"BUFF_DIST":100,"ORIG_FID":34,"Shape_Length":628.31853071795865,"Shape_Area":31415.926535897932},"geometry":{"curveRings":[[[16590634.227700002,-4166184.3335000016],{"a":[[16590634.227700002,-4166184.3335000016],[16590634.227700002,-4166284.3335000016],0,1]}]]}},{"attributes":{"OBJECTID":35,"School_Name":"Caroline Chisholm Primary","Street_Address":"Hambidge Crescent","Suburb":"Chisholm","Sector":"Government","Type_":"Primary School","LAT":-35.418154999999999,"LONG_":149.12204700000001,"BUFF_DIST":100,"ORIG_FID":35,"Shape_Length":628.31853071795865,"Shape_Area":31415.926535897932},"geometry":{"curveRings":[[[16600190.338100001,-4195989.3832999989],{"a":[[16600190.338100001,-4195989.3832999989],[16600190.338100001,-4196089.3832999989],0,1]}]]}},{"attributes":{"OBJECTID":36,"School_Name":"Curtin Primary","Street_Address":"Theodore Street","Suburb":"Curtin","Sector":"Government","Type_":"Primary School","LAT":-35.331662000000001,"LONG_":149.079926,"BUFF_DIST":100,"ORIG_FID":36,"Shape_Length":628.31853071795865,"Shape_Area":31415.926535897932},"geometry":{"curveRings":[[[16595501.4498,-4184233.6468000002],{"a":[[16595501.4498,-4184233.6468000002],[16595501.4498,-4184333.6468000002],0,1]}]]}},{"attributes":{"OBJECTID":37,"School_Name":"Duffy Primary","Street_Address":"Burrinjuck Crescent","Suburb":"Duffy","Sector":"Government","Type_":"Primary School","LAT":-35.334218999999997,"LONG_":149.03365600000001,"BUFF_DIST":100,"ORIG_FID":37,"Shape_Length":628.31853071795865,"Shape_Area":31415.926535897932},"geometry":{"curveRings":[[[16590350.696999997,-4184581.0003999993],{"a":[[16590350.696999997,-4184581.0003999993],[16590350.696999997,-4184681.0003999993],0,1]}]]}},{"attributes":{"OBJECTID":38,"School_Name":"Evatt Primary","Street_Address":"Heydon Crescent","Suburb":"Evatt","Sector":"Government","Type_":"Primary School","LAT":-35.207070000000002,"LONG_":149.075906,"BUFF_DIST":100,"ORIG_FID":38,"Shape_Length":628.31853071795865,"Shape_Area":31415.926535897932},"geometry":{"curveRings":[[[16595053.945500001,-4167321.9505000003],{"a":[[16595053.945500001,-4167321.9505000003],[16595053.945500001,-4167421.9505000003],0,1]}]]}},{"attributes":{"OBJECTID":39,"School_Name":"Fadden Primary","Street_Address":"Hanlon Crescent","Suburb":"Fadden","Sector":"Government","Type_":"Primary School","LAT":-35.404285999999999,"LONG_":149.11817500000001,"BUFF_DIST":100,"ORIG_FID":39,"Shape_Length":628.31853071795865,"Shape_Area":31415.926535897932},"geometry":{"curveRings":[[[16599759.309,-4194103.5155000016],{"a":[[16599759.309,-4194103.5155000016],[16599759.309,-4194203.5155000016],0,1]}]]}},{"attributes":{"OBJECTID":40,"School_Name":"Farrer Primary","Street_Address":"Lambrigg Street","Suburb":"Farrer","Sector":"Government","Type_":"Primary School","LAT":-35.378739000000003,"LONG_":149.107114,"BUFF_DIST":100,"ORIG_FID":40,"Shape_Length":628.31853071795865,"Shape_Area":31415.926535897932},"geometry":{"curveRings":[[[16598528.004100002,-4190630.5625],{"a":[[16598528.004100002,-4190630.5625],[16598528.004100002,-4190730.5625],0,1]}]]}},{"attributes":{"OBJECTID":41,"School_Name":"Florey Primary","Street_Address":"Ratcliffe Crescent","Suburb":"Florey","Sector":"Government","Type_":"Primary School","LAT":-35.226519000000003,"LONG_":149.05209199999999,"BUFF_DIST":100,"ORIG_FID":41,"Shape_Length":628.31853071795865,"Shape_Area":31415.926535897932},"geometry":{"curveRings":[[[16592402.983099997,-4169960.1647000015],{"a":[[16592402.983099997,-4169960.1647000015],[16592402.983099997,-4170060.1647000015],0,1]}]]}},{"attributes":{"OBJECTID":42,"School_Name":"Forrest Primary","Street_Address":"National Circuit","Suburb":"Forrest","Sector":"Government","Type_":"Primary School","LAT":-35.315083999999999,"LONG_":149.126171,"BUFF_DIST":100,"ORIG_FID":42,"Shape_Length":628.31853071795865,"Shape_Area":31415.926535897932},"geometry":{"curveRings":[[[16600649.419699997,-4181981.8905000016],{"a":[[16600649.419699997,-4181981.8905000016],[16600649.419699997,-4182081.8905000016],0,1]}]]}},{"attributes":{"OBJECTID":43,"School_Name":"Franklin Early Childhood School","Street_Address":"Oodgeroo Avenue","Suburb":"Franklin","Sector":"Government","Type_":"Primary School","LAT":-35.200460999999997,"LONG_":149.14132699999999,"BUFF_DIST":100,"ORIG_FID":43,"Shape_Length":628.31853071795865,"Shape_Area":31415.926535897932},"geometry":{"curveRings":[[[16602336.5779,-4166425.5993000008],{"a":[[16602336.5779,-4166425.5993000008],[16602336.5779,-4166525.5993000008],0,1]}]]}},{"attributes":{"OBJECTID":44,"School_Name":"Fraser Primary","Street_Address":"Tillyard Drive","Suburb":"Fraser","Sector":"Government","Type_":"Primary School","LAT":-35.191794999999999,"LONG_":149.043375,"BUFF_DIST":100,"ORIG_FID":44,"Shape_Length":628.31853071795865,"Shape_Area":31415.926535897932},"geometry":{"curveRings":[[[16591432.611100003,-4165250.3772],{"a":[[16591432.611100003,-4165250.3772],[16591432.611100003,-4165350.3772],0,1]}]]}},{"attributes":{"OBJECTID":45,"School_Name":"Garran Primary","Street_Address":"Gilmore Crescent","Suburb":"Garran","Sector":"Government","Type_":"Primary School","LAT":-35.344681000000001,"LONG_":149.10328699999999,"BUFF_DIST":100,"ORIG_FID":45,"Shape_Length":628.31853071795865,"Shape_Area":31415.926535897932},"geometry":{"curveRings":[[[16598101.984399997,-4186002.3178999983],{"a":[[16598101.984399997,-4186002.3178999983],[16598101.984399997,-4186102.3178999983],0,1]}]]}},{"attributes":{"OBJECTID":46,"School_Name":"Gilmore Primary","Street_Address":"Heagney Crescent","Suburb":"Gilmore","Sector":"Government","Type_":"Primary School","LAT":-35.419488000000001,"LONG_":149.135582,"BUFF_DIST":100,"ORIG_FID":46,"Shape_Length":628.31853071795865,"Shape_Area":31415.926535897932},"geometry":{"curveRings":[[[16601697.047399998,-4196170.6581000015],{"a":[[16601697.047399998,-4196170.6581000015],[16601697.047399998,-4196270.6581000015],0,1]}]]}},{"attributes":{"OBJECTID":47,"School_Name":"Giralang Primary","Street_Address":"Canopus Crescent","Suburb":"Giralang","Sector":"Government","Type_":"Primary School","LAT":-35.213717000000003,"LONG_":149.094449,"BUFF_DIST":100,"ORIG_FID":47,"Shape_Length":628.31853071795865,"Shape_Area":31415.926535897932},"geometry":{"curveRings":[[[16597118.142800003,-4168223.5296999998],{"a":[[16597118.142800003,-4168223.5296999998],[16597118.142800003,-4168323.5296999998],0,1]}]]}},{"attributes":{"OBJECTID":48,"School_Name":"Gold Creek School","Street_Address":"Kelleway Street","Suburb":"Nicholls","Sector":"Government","Type_":"Primary School","LAT":-35.181274999999999,"LONG_":149.10026199999999,"BUFF_DIST":100,"ORIG_FID":48,"Shape_Length":628.31853071795865,"Shape_Area":31415.926535897932},"geometry":{"curveRings":[[[16597765.243000001,-4163823.8986999989],{"a":[[16597765.243000001,-4163823.8986999989],[16597765.243000001,-4163923.8986999989],0,1]}]]}},{"attributes":{"OBJECTID":49,"School_Name":"Gordon Primary","Street_Address":"Knoke Avenue","Suburb":"Gordon","Sector":"Government","Type_":"Primary School","LAT":-35.455517,"LONG_":149.08697799999999,"BUFF_DIST":100,"ORIG_FID":49,"Shape_Length":628.31853071795865,"Shape_Area":31415.926535897932},"geometry":{"curveRings":[[[16596286.4749,-4201071.3938000016],{"a":[[16596286.4749,-4201071.3938000016],[16596286.4749,-4201171.3938000016],0,1]}]]}},{"attributes":{"OBJECTID":50,"School_Name":"Gowrie Primary","Street_Address":"Jeffries Street","Suburb":"Gowrie","Sector":"Government","Type_":"Primary School","LAT":-35.413608000000004,"LONG_":149.11056500000001,"BUFF_DIST":100,"ORIG_FID":50,"Shape_Length":628.31853071795865,"Shape_Area":31415.926535897932},"geometry":{"curveRings":[[[16598912.1677,-4195371.0588000007],{"a":[[16598912.1677,-4195371.0588000007],[16598912.1677,-4195471.0588000007],0,1]}]]}},{"attributes":{"OBJECTID":51,"School_Name":"Harrison School","Street_Address":"Nullabor Avenue","Suburb":"Harrison","Sector":"Government","Type_":"Primary School","LAT":-35.1975306,"LONG_":149.15163999999999,"BUFF_DIST":100,"ORIG_FID":51,"Shape_Length":628.31853071795865,"Shape_Area":31415.926535897932},"geometry":{"curveRings":[[[16603484.615800001,-4166028.1849000007],{"a":[[16603484.615800001,-4166028.1849000007],[16603484.615800001,-4166128.1849000007],0,1]}]]}},{"attributes":{"OBJECTID":52,"School_Name":"Hawker Primary","Street_Address":"Erldunda Cicuit","Suburb":"Hawker","Sector":"Government","Type_":"Primary School","LAT":-35.250284000000001,"LONG_":149.034593,"BUFF_DIST":100,"ORIG_FID":52,"Shape_Length":628.31853071795865,"Shape_Area":31415.926535897932},"geometry":{"curveRings":[[[16590455.003300004,-4173184.7010999992],{"a":[[16590455.003300004,-4173184.7010999992],[16590455.003300004,-4173284.7010999992],0,1]}]]}},{"attributes":{"OBJECTID":53,"School_Name":"Hughes Primary","Street_Address":"Kent Street","Suburb":"Hughes","Sector":"Government","Type_":"Primary School","LAT":-35.332248,"LONG_":149.093456,"BUFF_DIST":100,"ORIG_FID":53,"Shape_Length":628.31853071795865,"Shape_Area":31415.926535897932},"geometry":{"curveRings":[[[16597007.602499999,-4184313.250500001],{"a":[[16597007.602499999,-4184313.250500001],[16597007.602499999,-4184413.250500001],0,1]}]]}},{"attributes":{"OBJECTID":54,"School_Name":"Isabella Plains Early Childhood School","Street_Address":"Ellerston Avenue","Suburb":"Isabella Plains","Sector":"Government","Type_":"Primary School","LAT":-35.428716000000001,"LONG_":149.08949699999999,"BUFF_DIST":100,"ORIG_FID":54,"Shape_Length":628.31853071795865,"Shape_Area":31415.926535897932},"geometry":{"curveRings":[[[16596566.888700001,-4197425.6581000015],{"a":[[16596566.888700001,-4197425.6581000015],[16596566.888700001,-4197525.6581000015],0,1]}]]}},{"attributes":{"OBJECTID":55,"School_Name":"Jervis Bay Primary","Street_Address":"Jervis Bay","Suburb":"ACT 2540","Sector":"Government","Type_":"Primary School","LAT":-35.135012000000003,"LONG_":150.70361399999999,"BUFF_DIST":100,"ORIG_FID":55,"Shape_Length":628.31853071795865,"Shape_Area":31415.926535897932},"geometry":{"curveRings":[[[16776249.571199998,-4157552.9923],{"a":[[16776249.571199998,-4157552.9923],[16776249.571199998,-4157652.9923],0,1]}]]}},{"attributes":{"OBJECTID":56,"School_Name":"Kaleen Primary","Street_Address":"Ashburton Circuit","Suburb":"Kaleen","Sector":"Government","Type_":"Primary School","LAT":-35.224834999999999,"LONG_":149.11403999999999,"BUFF_DIST":100,"ORIG_FID":56,"Shape_Length":628.31853071795865,"Shape_Area":31415.926535897932},"geometry":{"curveRings":[[[16599299.002899997,-4169731.7085999995],{"a":[[16599299.002899997,-4169731.7085999995],[16599299.002899997,-4169831.7085999995],0,1]}]]}},{"attributes":{"OBJECTID":57,"School_Name":"Kingsford Smith School","Street_Address":"Cnr Hardwick Cres and Starke St","Suburb":"Holt","Sector":"Government","Type_":"Primary School","LAT":-35.226970999999999,"LONG_":149.02336099999999,"BUFF_DIST":100,"ORIG_FID":57,"Shape_Length":628.31853071795865,"Shape_Area":31415.926535897932},"geometry":{"curveRings":[[[16589204.662799999,-4170021.4851000011],{"a":[[16589204.662799999,-4170021.4851000011],[16589204.662799999,-4170121.4851000011],0,1]}]]}},{"attributes":{"OBJECTID":58,"School_Name":"Latham Primary","Street_Address":"O'Loghlen Street","Suburb":"Latham","Sector":"Government","Type_":"Primary School","LAT":-35.220157,"LONG_":149.03429800000001,"BUFF_DIST":100,"ORIG_FID":58,"Shape_Length":628.31853071795865,"Shape_Area":31415.926535897932},"geometry":{"curveRings":[[[16590422.164099999,-4169097.1031999998],{"a":[[16590422.164099999,-4169097.1031999998],[16590422.164099999,-4169197.1031999998],0,1]}]]}},{"attributes":{"OBJECTID":59,"School_Name":"Lyneham Primary","Street_Address":"Hall Street","Suburb":"Lyneham","Sector":"Government","Type_":"Primary School","LAT":-35.251480000000001,"LONG_":149.12497400000001,"BUFF_DIST":100,"ORIG_FID":59,"Shape_Length":628.31853071795865,"Shape_Area":31415.926535897932},"geometry":{"curveRings":[[[16600516.170199998,-4173347.0047000013],{"a":[[16600516.170199998,-4173347.0047000013],[16600516.170199998,-4173447.0047000013],0,1]}]]}},{"attributes":{"OBJECTID":60,"School_Name":"Lyons Early Childhood School","Street_Address":"Tarraleah Crescent","Suburb":"Lyons","Sector":"Government","Type_":"Primary School","LAT":-35.341633000000002,"LONG_":149.07624300000001,"BUFF_DIST":100,"ORIG_FID":60,"Shape_Length":628.31853071795865,"Shape_Area":31415.926535897932},"geometry":{"curveRings":[[[16595091.460100003,-4185588.2120000012],{"a":[[16595091.460100003,-4185588.2120000012],[16595091.460100003,-4185688.2120000012],0,1]}]]}},{"attributes":{"OBJECTID":61,"School_Name":"Macgregor Primary","Street_Address":"Hirschfeld Crescent","Suburb":"MacGregor","Sector":"Government","Type_":"Primary School","LAT":-35.213112000000002,"LONG_":149.012349,"BUFF_DIST":100,"ORIG_FID":61,"Shape_Length":628.31853071795865,"Shape_Area":31415.926535897932},"geometry":{"curveRings":[[[16587978.812600002,-4168141.4662999995],{"a":[[16587978.812600002,-4168141.4662999995],[16587978.812600002,-4168241.4662999995],0,1]}]]}},{"attributes":{"OBJECTID":62,"School_Name":"Macquarie Primary","Street_Address":"Bennelong Crescent","Suburb":"Macquarie","Sector":"Government","Type_":"Primary School","LAT":-35.250069000000003,"LONG_":149.059393,"BUFF_DIST":100,"ORIG_FID":62,"Shape_Length":628.31853071795865,"Shape_Area":31415.926535897932},"geometry":{"curveRings":[[[16593215.7267,-4173155.5247000009],{"a":[[16593215.7267,-4173155.5247000009],[16593215.7267,-4173255.5247000009],0,1]}]]}},{"attributes":{"OBJECTID":63,"School_Name":"Majura Primary","Street_Address":"Knox Street","Suburb":"Watson","Sector":"Government","Type_":"Primary School","LAT":-35.238509000000001,"LONG_":149.15501,"BUFF_DIST":100,"ORIG_FID":63,"Shape_Length":628.31853071795865,"Shape_Area":31415.926535897932},"geometry":{"curveRings":[[[16603859.762500003,-4171586.8997999988],{"a":[[16603859.762500003,-4171586.8997999988],[16603859.762500003,-4171686.8997999988],0,1]}]]}},{"attributes":{"OBJECTID":64,"School_Name":"Maribyrnong Primary","Street_Address":"Alberga Street","Suburb":"Kaleen","Sector":"Government","Type_":"Primary School","LAT":-35.235115,"LONG_":149.102261,"BUFF_DIST":100,"ORIG_FID":64,"Shape_Length":628.31853071795865,"Shape_Area":31415.926535897932},"geometry":{"curveRings":[[[16597987.770599999,-4171126.3964999989],{"a":[[16597987.770599999,-4171126.3964999989],[16597987.770599999,-4171226.3964999989],0,1]}]]}},{"attributes":{"OBJECTID":65,"School_Name":"Mawson Primary","Street_Address":"Ainsworth Street","Suburb":"Mawson","Sector":"Government","Type_":"Primary School","LAT":-35.358505000000001,"LONG_":149.097655,"BUFF_DIST":100,"ORIG_FID":65,"Shape_Length":628.31853071795865,"Shape_Area":31415.926535897932},"geometry":{"curveRings":[[[16597475.033100002,-4187880.6656000018],{"a":[[16597475.033100002,-4187880.6656000018],[16597475.033100002,-4187980.6656000018],0,1]}]]}},{"attributes":{"OBJECTID":66,"School_Name":"Miles Franklin Primary","Street_Address":"Alderman Street","Suburb":"Evatt","Sector":"Government","Type_":"Primary School","LAT":-35.213295000000002,"LONG_":149.06696099999999,"BUFF_DIST":100,"ORIG_FID":66,"Shape_Length":628.31853071795865,"Shape_Area":31415.926535897932},"geometry":{"curveRings":[[[16594058.192599997,-4168166.2886999995],{"a":[[16594058.192599997,-4168166.2886999995],[16594058.192599997,-4168266.2886999995],0,1]}]]}},{"attributes":{"OBJECTID":67,"School_Name":"Monash Primary","Street_Address":"Corlette Crescent","Suburb":"Monash","Sector":"Government","Type_":"Primary School","LAT":-35.414878999999999,"LONG_":149.08941100000001,"BUFF_DIST":100,"ORIG_FID":67,"Shape_Length":628.31853071795865,"Shape_Area":31415.926535897932},"geometry":{"curveRings":[[[16596557.315200001,-4195543.8924000002],{"a":[[16596557.315200001,-4195543.8924000002],[16596557.315200001,-4195643.8924000002],0,1]}]]}},{"attributes":{"OBJECTID":68,"School_Name":"Mount Rogers Primary School","Street_Address":"Alfred Hill Drive","Suburb":"Melba","Sector":"Government","Type_":"Primary School","LAT":-35.208736999999999,"LONG_":149.055621,"BUFF_DIST":100,"ORIG_FID":68,"Shape_Length":628.31853071795865,"Shape_Area":31415.926535897932},"geometry":{"curveRings":[[[16592795.829599999,-4167548.0504000001],{"a":[[16592795.829599999,-4167548.0504000001],[16592795.829599999,-4167648.0504000001],0,1]}]]}},{"attributes":{"OBJECTID":69,"School_Name":"Namadgi School","Street_Address":"O'Halloran Circuit","Suburb":"Kambah","Sector":"Government","Type_":"Primary School","LAT":-35.393841999999999,"LONG_":149.06443100000001,"BUFF_DIST":100,"ORIG_FID":69,"Shape_Length":628.31853071795865,"Shape_Area":31415.926535897932},"geometry":{"curveRings":[[[16593776.554300003,-4192683.5855999999],{"a":[[16593776.554300003,-4192683.5855999999],[16593776.554300003,-4192783.5855999999],0,1]}]]}},{"attributes":{"OBJECTID":70,"School_Name":"Narrabundah Early Childhood School","Street_Address":"Kootara Crescent","Suburb":"Narrabundah","Sector":"Government","Type_":"Primary School","LAT":-35.329016000000003,"LONG_":149.15069800000001,"BUFF_DIST":100,"ORIG_FID":70,"Shape_Length":628.31853071795865,"Shape_Area":31415.926535897932},"geometry":{"curveRings":[[[16603379.752800003,-4183874.2146999985],{"a":[[16603379.752800003,-4183874.2146999985],[16603379.752800003,-4183974.2146999985],0,1]}]]}},{"attributes":{"OBJECTID":71,"School_Name":"Neville Bonner Primary School","Street_Address":"Mabo Boulevard","Suburb":"Bonner","Sector":"Government","Type_":"Primary School","LAT":-35.161141000000001,"LONG_":149.13981200000001,"BUFF_DIST":100,"ORIG_FID":71,"Shape_Length":628.31853071795865,"Shape_Area":31415.926535897932},"geometry":{"curveRings":[[[16602167.928800002,-4161094.3115999997],{"a":[[16602167.928800002,-4161094.3115999997],[16602167.928800002,-4161194.3115999997],0,1]}]]}},{"attributes":{"OBJECTID":72,"School_Name":"Ngunnawal Primary","Street_Address":"Unaipon Crescent","Suburb":"Ngunnawal","Sector":"Government","Type_":"Primary School","LAT":-35.169195999999999,"LONG_":149.111784,"BUFF_DIST":100,"ORIG_FID":72,"Shape_Length":628.31853071795865,"Shape_Area":31415.926535897932},"geometry":{"curveRings":[[[16599047.8662,-4162186.2544],{"a":[[16599047.8662,-4162186.2544],[16599047.8662,-4162286.2544],0,1]}]]}},{"attributes":{"OBJECTID":73,"School_Name":"O'Connor Cooperative School","Street_Address":"MacPherson Street","Suburb":"O'Connor","Sector":"Government","Type_":"Primary School","LAT":-35.261994000000001,"LONG_":149.12073599999999,"BUFF_DIST":100,"ORIG_FID":73,"Shape_Length":628.31853071795865,"Shape_Area":31415.926535897932},"geometry":{"curveRings":[[[16600044.398199998,-4174773.9145000018],{"a":[[16600044.398199998,-4174773.9145000018],[16600044.398199998,-4174873.9145000018],0,1]}]]}},{"attributes":{"OBJECTID":74,"School_Name":"Palmerston District Primary","Street_Address":"Kosciusko Avenue","Suburb":"Palmerston","Sector":"Government","Type_":"Primary School","LAT":-35.197499999999998,"LONG_":149.12030300000001,"BUFF_DIST":100,"ORIG_FID":74,"Shape_Length":628.31853071795865,"Shape_Area":31415.926535897932},"geometry":{"curveRings":[[[16599996.196900003,-4166024.0351000018],{"a":[[16599996.196900003,-4166024.0351000018],[16599996.196900003,-4166124.0351000018],0,1]}]]}},{"attributes":{"OBJECTID":75,"School_Name":"Red Hill Primary","Street_Address":"Astrolabe Street","Suburb":"Red Hill","Sector":"Government","Type_":"Primary School","LAT":-35.339740999999997,"LONG_":149.132893,"BUFF_DIST":100,"ORIG_FID":75,"Shape_Length":628.31853071795865,"Shape_Area":31415.926535897932},"geometry":{"curveRings":[[[16601397.709299996,-4185331.1699000001],{"a":[[16601397.709299996,-4185331.1699000001],[16601397.709299996,-4185431.1699000001],0,1]}]]}},{"attributes":{"OBJECTID":76,"School_Name":"Richardson Primary","Street_Address":"May Gibbs Close","Suburb":"Richardson","Sector":"Government","Type_":"Primary School","LAT":-35.428859000000003,"LONG_":149.11394300000001,"BUFF_DIST":100,"ORIG_FID":76,"Shape_Length":628.31853071795865,"Shape_Area":31415.926535897932},"geometry":{"curveRings":[[[16599288.204899997,-4197445.1072000004],{"a":[[16599288.204899997,-4197445.1072000004],[16599288.204899997,-4197545.1072000004],0,1]}]]}},{"attributes":{"OBJECTID":77,"School_Name":"Southern Cross Early Childhood School","Street_Address":"Wirraway Crescent","Suburb":"Scullin","Sector":"Government","Type_":"Primary School","LAT":-35.232767000000003,"LONG_":149.038363,"BUFF_DIST":100,"ORIG_FID":77,"Shape_Length":628.31853071795865,"Shape_Area":31415.926535897932},"geometry":{"curveRings":[[[16590874.6778,-4170807.8275999986],{"a":[[16590874.6778,-4170807.8275999986],[16590874.6778,-4170907.8275999986],0,1]}]]}},{"attributes":{"OBJECTID":78,"School_Name":"Taylor Primary","Street_Address":"Marconi Crescent","Suburb":"Kambah","Sector":"Government","Type_":"Primary School","LAT":-35.378318,"LONG_":149.06426099999999,"BUFF_DIST":100,"ORIG_FID":78,"Shape_Length":628.31853071795865,"Shape_Area":31415.926535897932},"geometry":{"curveRings":[[[16593757.630000003,-4190573.3394999988],{"a":[[16593757.630000003,-4190573.3394999988],[16593757.630000003,-4190673.3394999988],0,1]}]]}},{"attributes":{"OBJECTID":79,"School_Name":"Telopea Park School","Street_Address":"New South Wales Crescent","Suburb":"Barton","Sector":"Government","Type_":"Primary School","LAT":-35.313803999999998,"LONG_":149.13438500000001,"BUFF_DIST":100,"ORIG_FID":79,"Shape_Length":628.31853071795865,"Shape_Area":31415.926535897932},"geometry":{"curveRings":[[[16601563.798,-4181808.0500999987],{"a":[[16601563.798,-4181808.0500999987],[16601563.798,-4181908.0500999987],0,1]}]]}},{"attributes":{"OBJECTID":80,"School_Name":"Theodore Primary","Street_Address":"Lawrence-Wackett Crescent","Suburb":"Theodore","Sector":"Government","Type_":"Primary School","LAT":-35.447667000000003,"LONG_":149.12396000000001,"BUFF_DIST":100,"ORIG_FID":80,"Shape_Length":628.31853071795865,"Shape_Area":31415.926535897932},"geometry":{"curveRings":[[[16600403.292300001,-4200003.4327999987],{"a":[[16600403.292300001,-4200003.4327999987],[16600403.292300001,-4200103.4327999987],0,1]}]]}},{"attributes":{"OBJECTID":81,"School_Name":"Torrens Primary","Street_Address":"Ritchie Street","Suburb":"Torrens","Sector":"Government","Type_":"Primary School","LAT":-35.370046000000002,"LONG_":149.09094899999999,"BUFF_DIST":100,"ORIG_FID":81,"Shape_Length":628.31853071795865,"Shape_Area":31415.926535897932},"geometry":{"curveRings":[[[16596728.524599999,-4189449.0571999997],{"a":[[16596728.524599999,-4189449.0571999997],[16596728.524599999,-4189549.0571999997],0,1]}]]}},{"attributes":{"OBJECTID":82,"School_Name":"Turner School","Street_Address":"Condamine Street","Suburb":"Turner","Sector":"Government","Type_":"Primary School","LAT":-35.264994999999999,"LONG_":149.126081,"BUFF_DIST":100,"ORIG_FID":82,"Shape_Length":628.31853071795865,"Shape_Area":31415.926535897932},"geometry":{"curveRings":[[[16600639.400899999,-4175181.2300999984],{"a":[[16600639.400899999,-4175181.2300999984],[16600639.400899999,-4175281.2300999984],0,1]}]]}},{"attributes":{"OBJECTID":83,"School_Name":"Wanniassa Hills Primary","Street_Address":"Langdon Avenue","Suburb":"Wanniassa","Sector":"Government","Type_":"Primary School","LAT":-35.393068999999997,"LONG_":149.09589800000001,"BUFF_DIST":100,"ORIG_FID":83,"Shape_Length":628.31853071795865,"Shape_Area":31415.926535897932},"geometry":{"curveRings":[[[16597279.444700003,-4192578.4985999987],{"a":[[16597279.444700003,-4192578.4985999987],[16597279.444700003,-4192678.4985999987],0,1]}]]}},{"attributes":{"OBJECTID":84,"School_Name":"Wanniassa School","Street_Address":"Sternberg Crescent","Suburb":"Wanniassa","Sector":"Government","Type_":"Primary School","LAT":-35.394992000000002,"LONG_":149.08636300000001,"BUFF_DIST":100,"ORIG_FID":84,"Shape_Length":628.31853071795865,"Shape_Area":31415.926535897932},"geometry":{"curveRings":[[[16596218.013400003,-4192839.9265000001],{"a":[[16596218.013400003,-4192839.9265000001],[16596218.013400003,-4192939.9265000001],0,1]}]]}},{"attributes":{"OBJECTID":85,"School_Name":"Weetangera Primary","Street_Address":"Southwell Street","Suburb":"Weetangera","Sector":"Government","Type_":"Primary School","LAT":-35.251826000000001,"LONG_":149.04713699999999,"BUFF_DIST":100,"ORIG_FID":85,"Shape_Length":628.31853071795865,"Shape_Area":31415.926535897932},"geometry":{"curveRings":[[[16591851.395000003,-4173393.9591999985],{"a":[[16591851.395000003,-4173393.9591999985],[16591851.395000003,-4173493.9591999985],0,1]}]]}},{"attributes":{"OBJECTID":86,"School_Name":"Yarralumla Primary","Street_Address":"Loftus Street","Suburb":"Yarralumla","Sector":"Government","Type_":"Primary School","LAT":-35.306947999999998,"LONG_":149.10323399999999,"BUFF_DIST":100,"ORIG_FID":86,"Shape_Length":628.31853071795865,"Shape_Area":31415.926535897932},"geometry":{"curveRings":[[[16598096.0845,-4180876.9644000009],{"a":[[16598096.0845,-4180876.9644000009],[16598096.0845,-4180976.9644000009],0,1]}]]}},{"attributes":{"OBJECTID":87,"School_Name":"Alfred Deakin High","Street_Address":"Denison Street","Suburb":"Deakin","Sector":"Government","Type_":"High School","LAT":-35.323849000000003,"LONG_":149.09428199999999,"BUFF_DIST":100,"ORIG_FID":87,"Shape_Length":628.31853071795865,"Shape_Area":31415.926535897932},"geometry":{"curveRings":[[[16597099.5524,-4183172.3647000007],{"a":[[16597099.5524,-4183172.3647000007],[16597099.5524,-4183272.3647000007],0,1]}]]}},{"attributes":{"OBJECTID":88,"School_Name":"Amaroo School","Street_Address":"Katherine Avenue","Suburb":"Amaroo","Sector":"Government","Type_":"High School","LAT":-35.163986000000001,"LONG_":149.129705,"BUFF_DIST":100,"ORIG_FID":88,"Shape_Length":628.31853071795865,"Shape_Area":31415.926535897932},"geometry":{"curveRings":[[[16601042.822800003,-4161479.9697999991],{"a":[[16601042.822800003,-4161479.9697999991],[16601042.822800003,-4161579.9697999991],0,1]}]]}},{"attributes":{"OBJECTID":89,"School_Name":"Belconnen High","Street_Address":"Murranji Street","Suburb":"Hawker","Sector":"Government","Type_":"High School","LAT":-35.246957000000002,"LONG_":149.039298,"BUFF_DIST":100,"ORIG_FID":89,"Shape_Length":628.31853071795865,"Shape_Area":31415.926535897932},"geometry":{"curveRings":[[[16590978.761500001,-4172733.2221999988],{"a":[[16590978.761500001,-4172733.2221999988],[16590978.761500001,-4172833.2221999988],0,1]}]]}},{"attributes":{"OBJECTID":90,"School_Name":"Calwell High","Street_Address":"Casey Crescent","Suburb":"Calwell","Sector":"Government","Type_":"High School","LAT":-35.441051999999999,"LONG_":149.11763500000001,"BUFF_DIST":100,"ORIG_FID":90,"Shape_Length":628.31853071795865,"Shape_Area":31415.926535897932},"geometry":{"curveRings":[[[16599699.196500003,-4199103.5700999983],{"a":[[16599699.196500003,-4199103.5700999983],[16599699.196500003,-4199203.5700999983],0,1]}]]}},{"attributes":{"OBJECTID":91,"School_Name":"Campbell High","Street_Address":"Treloar Crescent","Suburb":"Campbell","Sector":"Government","Type_":"High School","LAT":-35.278100999999999,"LONG_":149.14712299999999,"BUFF_DIST":100,"ORIG_FID":91,"Shape_Length":628.31853071795865,"Shape_Area":31415.926535897932},"geometry":{"curveRings":[[[16602981.785599999,-4176960.241799999],{"a":[[16602981.785599999,-4176960.241799999],[16602981.785599999,-4177060.241799999],0,1]}]]}},{"attributes":{"OBJECTID":92,"School_Name":"Canberra High","Street_Address":"Bindubi Street","Suburb":"Macquarie","Sector":"Government","Type_":"High School","LAT":-35.251302000000003,"LONG_":149.07451699999999,"BUFF_DIST":100,"ORIG_FID":92,"Shape_Length":628.31853071795865,"Shape_Area":31415.926535897932},"geometry":{"curveRings":[[[16594899.322700001,-4173322.8489999995],{"a":[[16594899.322700001,-4173322.8489999995],[16594899.322700001,-4173422.8489999995],0,1]}]]}},{"attributes":{"OBJECTID":93,"School_Name":"Caroline Chisholm School","Street_Address":"Hambidge Crescent","Suburb":"Chisholm","Sector":"Government","Type_":"High School","LAT":-35.418154999999999,"LONG_":149.12204700000001,"BUFF_DIST":100,"ORIG_FID":93,"Shape_Length":628.31853071795865,"Shape_Area":31415.926535897932},"geometry":{"curveRings":[[[16600190.338100001,-4195989.3832999989],{"a":[[16600190.338100001,-4195989.3832999989],[16600190.338100001,-4196089.3832999989],0,1]}]]}},{"attributes":{"OBJECTID":94,"School_Name":"Gold Creek School","Street_Address":"Kelleway Street","Suburb":"Nicholls","Sector":"Government","Type_":"High School","LAT":-35.181274999999999,"LONG_":149.10026199999999,"BUFF_DIST":100,"ORIG_FID":94,"Shape_Length":628.31853071795865,"Shape_Area":31415.926535897932},"geometry":{"curveRings":[[[16597765.243000001,-4163823.8986999989],{"a":[[16597765.243000001,-4163823.8986999989],[16597765.243000001,-4163923.8986999989],0,1]}]]}},{"attributes":{"OBJECTID":95,"School_Name":"Harrison School","Street_Address":"Nullabor Avenue","Suburb":"Harrison","Sector":"Government","Type_":"High School","LAT":-35.1975306,"LONG_":149.15163999999999,"BUFF_DIST":100,"ORIG_FID":95,"Shape_Length":628.31853071795865,"Shape_Area":31415.926535897932},"geometry":{"curveRings":[[[16603484.615800001,-4166028.1849000007],{"a":[[16603484.615800001,-4166028.1849000007],[16603484.615800001,-4166128.1849000007],0,1]}]]}},{"attributes":{"OBJECTID":96,"School_Name":"University of Canberra High School - Kaleen","Street_Address":"Baldwin Drive","Suburb":"Kaleen","Sector":"Government","Type_":"High School","LAT":-35.225082999999998,"LONG_":149.10120000000001,"BUFF_DIST":100,"ORIG_FID":96,"Shape_Length":628.31853071795865,"Shape_Area":31415.926535897932},"geometry":{"curveRings":[[[16597869.660700001,-4169765.3526000008],{"a":[[16597869.660700001,-4169765.3526000008],[16597869.660700001,-4169865.3526000008],0,1]}]]}},{"attributes":{"OBJECTID":97,"School_Name":"Kingsford Smith School","Street_Address":"Cnr Hardwick Cres and Starke St","Suburb":"Holt","Sector":"Government","Type_":"High School","LAT":-35.227531999999997,"LONG_":149.02100100000001,"BUFF_DIST":100,"ORIG_FID":97,"Shape_Length":628.31853071795865,"Shape_Area":31415.926535897932},"geometry":{"curveRings":[[[16588941.948799998,-4170097.5934000015],{"a":[[16588941.948799998,-4170097.5934000015],[16588941.948799998,-4170197.5934000015],0,1]}]]}},{"attributes":{"OBJECTID":98,"School_Name":"Lanyon High","Street_Address":"Heidelberg Street","Suburb":"Conder","Sector":"Government","Type_":"High School","LAT":-35.460388999999999,"LONG_":149.09506999999999,"BUFF_DIST":100,"ORIG_FID":98,"Shape_Length":628.31853071795865,"Shape_Area":31415.926535897932},"geometry":{"curveRings":[[[16597187.272200003,-4201734.2628000006],{"a":[[16597187.272200003,-4201734.2628000006],[16597187.272200003,-4201834.2628000006],0,1]}]]}},{"attributes":{"OBJECTID":99,"School_Name":"Lyneham High","Street_Address":"Goodwin Street","Suburb":"Lyneham","Sector":"Government","Type_":"High School","LAT":-35.252378999999998,"LONG_":149.130653,"BUFF_DIST":100,"ORIG_FID":99,"Shape_Length":628.31853071795865,"Shape_Area":31415.926535897932},"geometry":{"curveRings":[[[16601148.353600003,-4173469.0053000003],{"a":[[16601148.353600003,-4173469.0053000003],[16601148.353600003,-4173569.0053000003],0,1]}]]}},{"attributes":{"OBJECTID":100,"School_Name":"Melba Copland Secondary School","Street_Address":"Conley Drive","Suburb":"Melba","Sector":"Government","Type_":"High School","LAT":-35.212539999999997,"LONG_":149.05979400000001,"BUFF_DIST":100,"ORIG_FID":100,"Shape_Length":628.31853071795865,"Shape_Area":31415.926535897932},"geometry":{"curveRings":[[[16593260.365800001,-4168063.8795999996],{"a":[[16593260.365800001,-4168063.8795999996],[16593260.365800001,-4168163.8795999996],0,1]}]]}},{"attributes":{"OBJECTID":101,"School_Name":"Melrose High","Street_Address":"Marr Street","Suburb":"Pearce","Sector":"Government","Type_":"High School","LAT":-35.363475000000001,"LONG_":149.08943400000001,"BUFF_DIST":100,"ORIG_FID":101,"Shape_Length":628.31853071795865,"Shape_Area":31415.926535897932},"geometry":{"curveRings":[[[16596559.875500001,-4188556.0478000008],{"a":[[16596559.875500001,-4188556.0478000008],[16596559.875500001,-4188656.0478000008],0,1]}]]}},{"attributes":{"OBJECTID":102,"School_Name":"Mount Stromlo High School","Street_Address":"Badimara Street","Suburb":"Waramanga","Sector":"Government","Type_":"High School","LAT":-35.355429000000001,"LONG_":149.05436,"BUFF_DIST":100,"ORIG_FID":102,"Shape_Length":628.31853071795865,"Shape_Area":31415.926535897932},"geometry":{"curveRings":[[[16592655.455700003,-4187462.6834000014],{"a":[[16592655.455700003,-4187462.6834000014],[16592655.455700003,-4187562.6834000014],0,1]}]]}},{"attributes":{"OBJECTID":103,"School_Name":"Namadgi School","Street_Address":"O'Halloran Circuit","Suburb":"Kambah","Sector":"Government","Type_":"High School","LAT":-35.393841999999999,"LONG_":149.06443100000001,"BUFF_DIST":100,"ORIG_FID":103,"Shape_Length":628.31853071795865,"Shape_Area":31415.926535897932},"geometry":{"curveRings":[[[16593776.554300003,-4192683.5855999999],{"a":[[16593776.554300003,-4192683.5855999999],[16593776.554300003,-4192783.5855999999],0,1]}]]}},{"attributes":{"OBJECTID":104,"School_Name":"Telopea Park School","Street_Address":"New South Wales Crescent","Suburb":"Barton","Sector":"Government","Type_":"High School","LAT":-35.313803999999998,"LONG_":149.13438500000001,"BUFF_DIST":100,"ORIG_FID":104,"Shape_Length":628.31853071795865,"Shape_Area":31415.926535897932},"geometry":{"curveRings":[[[16601563.798,-4181808.0500999987],{"a":[[16601563.798,-4181808.0500999987],[16601563.798,-4181908.0500999987],0,1]}]]}},{"attributes":{"OBJECTID":105,"School_Name":"Wanniassa School","Street_Address":"Wheeler Crescent","Suburb":"Wanniassa","Sector":"Government","Type_":"High School","LAT":-35.395277,"LONG_":149.085588,"BUFF_DIST":100,"ORIG_FID":105,"Shape_Length":628.31853071795865,"Shape_Area":31415.926535897932},"geometry":{"curveRings":[[[16596131.740800001,-4192878.6722000018],{"a":[[16596131.740800001,-4192878.6722000018],[16596131.740800001,-4192978.6722000018],0,1]}]]}},{"attributes":{"OBJECTID":106,"School_Name":"Alternative Education Program/Dickson College","Street_Address":"Phillip Avenue","Suburb":"Dickson","Sector":"Government","Type_":"Specialist School/Education Centre","LAT":-35.248452,"LONG_":149.154143,"BUFF_DIST":100,"ORIG_FID":106,"Shape_Length":628.31853071795865,"Shape_Area":31415.926535897932},"geometry":{"curveRings":[[[16603763.248499997,-4172936.0936000012],{"a":[[16603763.248499997,-4172936.0936000012],[16603763.248499997,-4173036.0936000012],0,1]}]]}},{"attributes":{"OBJECTID":107,"School_Name":"Alternative Education Program/Canberra College","Street_Address":"Fremantle Drive","Suburb":"Stirling","Sector":"Government","Type_":"Specialist School/Education Centre","LAT":-35.350800999999997,"LONG_":149.04975400000001,"BUFF_DIST":100,"ORIG_FID":107,"Shape_Length":628.31853071795865,"Shape_Area":31415.926535897932},"geometry":{"curveRings":[[[16592142.718099996,-4186833.8381000012],{"a":[[16592142.718099996,-4186833.8381000012],[16592142.718099996,-4186933.8381000012],0,1]}]]}},{"attributes":{"OBJECTID":108,"School_Name":"Birrigai Outdoor School","Street_Address":"Tidbinbilla Road","Suburb":"Tharwa","Sector":"Government","Type_":"Specialist School/Education Centre","LAT":-35.444729000000002,"LONG_":148.95997499999999,"BUFF_DIST":100,"ORIG_FID":108,"Shape_Length":628.31853071795865,"Shape_Area":31415.926535897932},"geometry":{"curveRings":[[[16582148.5656,-4199603.7567000017],{"a":[[16582148.5656,-4199603.7567000017],[16582148.5656,-4199703.7567000017],0,1]}]]}},{"attributes":{"OBJECTID":109,"School_Name":"Black Mountain  School","Street_Address":"Dryandra Street","Suburb":"O'Connor","Sector":"Government","Type_":"Specialist School/Education Centre","LAT":-35.265224000000003,"LONG_":149.11236600000001,"BUFF_DIST":100,"ORIG_FID":109,"Shape_Length":628.31853071795865,"Shape_Area":31415.926535897932},"geometry":{"curveRings":[[[16599112.654100001,-4175212.3121000007],{"a":[[16599112.654100001,-4175212.3121000007],[16599112.654100001,-4175312.3121000007],0,1]}]]}},{"attributes":{"OBJECTID":110,"School_Name":"Cranleigh School","Street_Address":"Starke Street","Suburb":"Holt","Sector":"Government","Type_":"Specialist School/Education Centre","LAT":-35.224913000000001,"LONG_":149.02911,"BUFF_DIST":100,"ORIG_FID":110,"Shape_Length":628.31853071795865,"Shape_Area":31415.926535897932},"geometry":{"curveRings":[[[16589844.638599999,-4169742.2901999988],{"a":[[16589844.638599999,-4169742.2901999988],[16589844.638599999,-4169842.2901999988],0,1]}]]}},{"attributes":{"OBJECTID":111,"School_Name":"Hospital School (The)/Canberra Hospital","Street_Address":"Yamba Drive","Suburb":"Garran","Sector":"Government","Type_":"Specialist School/Education Centre","LAT":-35.345129999999997,"LONG_":149.10077999999999,"BUFF_DIST":100,"ORIG_FID":111,"Shape_Length":628.31853071795865,"Shape_Area":31415.926535897932},"geometry":{"curveRings":[[[16597822.906499997,-4186063.3211000003],{"a":[[16597822.906499997,-4186063.3211000003],[16597822.906499997,-4186163.3211000003],0,1]}]]}},{"attributes":{"OBJECTID":112,"School_Name":"Instrumental Music Program c/o Kaleen High School","Street_Address":"Baldwin Drive","Suburb":"Kaleen","Sector":"Government","Type_":"Specialist School/Education Centre","LAT":-35.225082999999998,"LONG_":149.10120000000001,"BUFF_DIST":100,"ORIG_FID":112,"Shape_Length":628.31853071795865,"Shape_Area":31415.926535897932},"geometry":{"curveRings":[[[16597869.660700001,-4169765.3526000008],{"a":[[16597869.660700001,-4169765.3526000008],[16597869.660700001,-4169865.3526000008],0,1]}]]}},{"attributes":{"OBJECTID":113,"School_Name":"Malkara School","Street_Address":"Wisdom Street","Suburb":"Garran","Sector":"Government","Type_":"Specialist School/Education Centre","LAT":-35.337446999999997,"LONG_":149.09402,"BUFF_DIST":100,"ORIG_FID":113,"Shape_Length":628.31853071795865,"Shape_Area":31415.926535897932},"geometry":{"curveRings":[[[16597070.386699997,-4185019.5212999992],{"a":[[16597070.386699997,-4185019.5212999992],[16597070.386699997,-4185119.5212999992],0,1]}]]}},{"attributes":{"OBJECTID":114,"School_Name":"Melrose Guidance and Counselling Service/Melrose HS","Street_Address":"Marr Street","Suburb":"Pearce","Sector":"Government","Type_":"Specialist School/Education Centre","LAT":-35.363475000000001,"LONG_":149.08943400000001,"BUFF_DIST":100,"ORIG_FID":114,"Shape_Length":628.31853071795865,"Shape_Area":31415.926535897932},"geometry":{"curveRings":[[[16596559.875500001,-4188556.0478000008],{"a":[[16596559.875500001,-4188556.0478000008],[16596559.875500001,-4188656.0478000008],0,1]}]]}},{"attributes":{"OBJECTID":115,"School_Name":"Turner Early Childhood Centre","Street_Address":"Condamine Street","Suburb":"Turner","Sector":"Government","Type_":"Specialist School/Education Centre","LAT":-35.264994999999999,"LONG_":149.126081,"BUFF_DIST":100,"ORIG_FID":115,"Shape_Length":628.31853071795865,"Shape_Area":31415.926535897932},"geometry":{"curveRings":[[[16600639.400899999,-4175181.2300999984],{"a":[[16600639.400899999,-4175181.2300999984],[16600639.400899999,-4175281.2300999984],0,1]}]]}},{"attributes":{"OBJECTID":116,"School_Name":"Woden School (The)","Street_Address":"Denison Street","Suburb":"Deakin","Sector":"Government","Type_":"Specialist School/Education Centre","LAT":-35.326599000000002,"LONG_":149.092398,"BUFF_DIST":100,"ORIG_FID":116,"Shape_Length":628.31853071795865,"Shape_Area":31415.926535897932},"geometry":{"curveRings":[[[16596889.826499999,-4183545.9002999999],{"a":[[16596889.826499999,-4183545.9002999999],[16596889.826499999,-4183645.9002999999],0,1]}]]}},{"attributes":{"OBJECTID":117,"School_Name":"Northside Primary Introductory English Centre (at North Ainslie Primary School)","Street_Address":"Majura Avenue","Suburb":"Ainslie","Sector":"Government","Type_":"Introductory English Centre","LAT":-35.254797000000003,"LONG_":149.145509,"BUFF_DIST":100,"ORIG_FID":117,"Shape_Length":628.31853071795865,"Shape_Area":31415.926535897932},"geometry":{"curveRings":[[[16602802.115999997,-4173797.1519000009],{"a":[[16602802.115999997,-4173797.1519000009],[16602802.115999997,-4173897.1519000009],0,1]}]]}},{"attributes":{"OBJECTID":118,"School_Name":"Southside Primary Introductory English Centre (at Hughes Primary School)","Street_Address":"Kent Street","Suburb":"Hughes","Sector":"Government","Type_":"Introductory English Centre","LAT":-35.332248,"LONG_":149.093456,"BUFF_DIST":100,"ORIG_FID":118,"Shape_Length":628.31853071795865,"Shape_Area":31415.926535897932},"geometry":{"curveRings":[[[16597007.602499999,-4184313.250500001],{"a":[[16597007.602499999,-4184313.250500001],[16597007.602499999,-4184413.250500001],0,1]}]]}},{"attributes":{"OBJECTID":119,"School_Name":"Secondary Introductory English Centre (at Dickson College)","Street_Address":"Phillip Avenue","Suburb":"Dickson","Sector":"Government","Type_":"Introductory English Centre","LAT":-35.249000000000002,"LONG_":149.15299999999999,"BUFF_DIST":100,"ORIG_FID":119,"Shape_Length":628.31853071795865,"Shape_Area":31415.926535897932},"geometry":{"curveRings":[[[16603636.010300003,-4173010.4580999985],{"a":[[16603636.010300003,-4173010.4580999985],[16603636.010300003,-4173110.4580999985],0,1]}]]}},{"attributes":{"OBJECTID":120,"School_Name":"Belconnen Primary Introductory English Centre (at Charnwood Dunlop Primary School)","Street_Address":"Bettington Circuit","Suburb":"Charnwood","Sector":"Government","Type_":"Introductory English Centre","LAT":-35.19876,"LONG_":149.03621999999999,"BUFF_DIST":100,"ORIG_FID":120,"Shape_Length":628.31853071795865,"Shape_Area":31415.926535897932},"geometry":{"curveRings":[[[16590636.120200001,-4166194.9116999991],{"a":[[16590636.120200001,-4166194.9116999991],[16590636.120200001,-4166294.9116999991],0,1]}]]}},{"attributes":{"OBJECTID":121,"School_Name":"Tuggeranong Introductory English Centre (at Wanniassa Hills Primary School)","Street_Address":"Langdon Avenue","Suburb":"Wanniassa","Sector":"Government","Type_":"Introductory English Centre","LAT":-35.39282,"LONG_":149.09216000000001,"BUFF_DIST":100,"ORIG_FID":121,"Shape_Length":628.31853071795865,"Shape_Area":31415.926535897932},"geometry":{"curveRings":[[[16596863.332500003,-4192544.6479999982],{"a":[[16596863.332500003,-4192544.6479999982],[16596863.332500003,-4192644.6479999982],0,1]}]]}},{"attributes":{"OBJECTID":122,"School_Name":"Gungahlin Primary Introductory English Centre (at Palmerston District Primary School)","Street_Address":"Kosciuszko Avenue","Suburb":"Palmerston","Sector":"Government","Type_":"Introductory English Centre","LAT":-35.197499999999998,"LONG_":149.12030300000001,"BUFF_DIST":100,"ORIG_FID":122,"Shape_Length":628.31853071795865,"Shape_Area":31415.926535897932},"geometry":{"curveRings":[[[16599996.196900003,-4166024.0351000018],{"a":[[16599996.196900003,-4166024.0351000018],[16599996.196900003,-4166124.0351000018],0,1]}]]}},{"attributes":{"OBJECTID":123,"School_Name":"Blue Gum Community School","Street_Address":"Maitland Street","Suburb":"Hackett","Sector":"Non-Government","Type_":"Independent Community","LAT":-35.249946999999999,"LONG_":149.16251399999999,"BUFF_DIST":100,"ORIG_FID":123,"Shape_Length":628.31853071795865,"Shape_Area":31415.926535897932},"geometry":{"curveRings":[[[16604695.1039,-4173138.9688000008],{"a":[[16604695.1039,-4173138.9688000008],[16604695.1039,-4173238.9688000008],0,1]}]]}},{"attributes":{"OBJECTID":124,"School_Name":"Brindabella Christian College - Lyneham Campus","Street_Address":"Brigalow Street","Suburb":"Lyneham","Sector":"Non-Government","Type_":"Independent Christian","LAT":-35.249003000000002,"LONG_":149.12763899999999,"BUFF_DIST":100,"ORIG_FID":124,"Shape_Length":628.31853071795865,"Shape_Area":31415.926535897932},"geometry":{"curveRings":[[[16600812.8367,-4173010.8652000017],{"a":[[16600812.8367,-4173010.8652000017],[16600812.8367,-4173110.8652000017],0,1]}]]}},{"attributes":{"OBJECTID":125,"School_Name":"Burgmann Anglican School - Valley Campus","Street_Address":"Cnr Gungahlin Drive & The Valley Avenue","Suburb":"Gungahlin","Sector":"Non-Government","Type_":"Independent Anglican","LAT":-35.188529000000003,"LONG_":149.123672,"BUFF_DIST":100,"ORIG_FID":125,"Shape_Length":628.31853071795865,"Shape_Area":31415.926535897932},"geometry":{"curveRings":[[[16600371.232299998,-4164807.4981000014],{"a":[[16600371.232299998,-4164807.4981000014],[16600371.232299998,-4164907.4981000014],0,1]}]]}},{"attributes":{"OBJECTID":126,"School_Name":"Canberra Christian School","Street_Address":"Ainsworth Street","Suburb":"Mawson","Sector":"Non-Government","Type_":"Independent Christian","LAT":-35.356475000000003,"LONG_":149.09796299999999,"BUFF_DIST":100,"ORIG_FID":126,"Shape_Length":628.31853071795865,"Shape_Area":31415.926535897932},"geometry":{"curveRings":[[[16597509.319499999,-4187604.8172999993],{"a":[[16597509.319499999,-4187604.8172999993],[16597509.319499999,-4187704.8172999993],0,1]}]]}},{"attributes":{"OBJECTID":127,"School_Name":"Canberra Girls' Grammar School","Street_Address":"Melbourne Avenue","Suburb":"Deakin","Sector":"Non-Government","Type_":"Independent Anglican","LAT":-35.316989999999997,"LONG_":149.115115,"BUFF_DIST":100,"ORIG_FID":127,"Shape_Length":628.31853071795865,"Shape_Area":31415.926535897932},"geometry":{"curveRings":[[[16599418.671400003,-4182240.754900001],{"a":[[16599418.671400003,-4182240.754900001],[16599418.671400003,-4182340.754900001],0,1]}]]}},{"attributes":{"OBJECTID":128,"School_Name":"Canberra Girls' Grammar School - Junior school campus","Street_Address":"Grey Street","Suburb":"Deakin","Sector":"Non-Government","Type_":"Independent Anglican","LAT":-35.312125999999999,"LONG_":149.110759,"BUFF_DIST":100,"ORIG_FID":128,"Shape_Length":628.31853071795865,"Shape_Area":31415.926535897932},"geometry":{"curveRings":[[[16598933.763700001,-4181580.1603000015],{"a":[[16598933.763700001,-4181580.1603000015],[16598933.763700001,-4181680.1603000015],0,1]}]]}},{"attributes":{"OBJECTID":129,"School_Name":"Canberra Grammar School","Street_Address":"Monaro Crescent","Suburb":"Red Hill","Sector":"Non-Government","Type_":"Independent Anglican","LAT":-35.330919000000002,"LONG_":149.124674,"BUFF_DIST":100,"ORIG_FID":129,"Shape_Length":628.31853071795865,"Shape_Area":31415.926535897932},"geometry":{"curveRings":[[[16600482.774400003,-4184132.7166000009],{"a":[[16600482.774400003,-4184132.7166000009],[16600482.774400003,-4184232.7166000009],0,1]}]]}},{"attributes":{"OBJECTID":130,"School_Name":"Canberra Grammar School - Junior school campus","Street_Address":"Alexander Street","Suburb":"Red Hill","Sector":"Non-Government","Type_":"Independent Anglican","LAT":-35.332343999999999,"LONG_":149.12469100000001,"BUFF_DIST":100,"ORIG_FID":130,"Shape_Length":628.31853071795865,"Shape_Area":31415.926535897932},"geometry":{"curveRings":[[[16600484.6668,-4184326.2914000005],{"a":[[16600484.6668,-4184326.2914000005],[16600484.6668,-4184426.2914000005],0,1]}]]}},{"attributes":{"OBJECTID":131,"School_Name":"Canberra Grammar School - Southside - early childhood campus","Street_Address":"Alexander Street","Suburb":"Red Hill","Sector":"Non-Government","Type_":"Independent Anglican","LAT":-35.332343999999999,"LONG_":149.12469100000001,"BUFF_DIST":100,"ORIG_FID":131,"Shape_Length":628.31853071795865,"Shape_Area":31415.926535897932},"geometry":{"curveRings":[[[16600484.6668,-4184326.2914000005],{"a":[[16600484.6668,-4184326.2914000005],[16600484.6668,-4184426.2914000005],0,1]}]]}},{"attributes":{"OBJECTID":132,"School_Name":"Canberra Grammar School - Northside - early childhood campus","Street_Address":"Blamey Crescent","Suburb":"Campbell","Sector":"Non-Government","Type_":"Independent Anglican","LAT":-35.285316000000002,"LONG_":149.14709099999999,"BUFF_DIST":100,"ORIG_FID":132,"Shape_Length":628.31853071795865,"Shape_Area":31415.926535897932},"geometry":{"curveRings":[[[16602978.223399997,-4177939.7316999994],{"a":[[16602978.223399997,-4177939.7316999994],[16602978.223399997,-4178039.7316999994],0,1]}]]}},{"attributes":{"OBJECTID":133,"School_Name":"Canberra Montessori School","Street_Address":"Mulley Street","Suburb":"Holder","Sector":"Non-Government","Type_":"Independent Montessori","LAT":-35.332247000000002,"LONG_":149.05106799999999,"BUFF_DIST":100,"ORIG_FID":133,"Shape_Length":628.31853071795865,"Shape_Area":31415.926535897932},"geometry":{"curveRings":[[[16592288.991999999,-4184313.114599999],{"a":[[16592288.991999999,-4184313.114599999],[16592288.991999999,-4184413.114599999],0,1]}]]}},{"attributes":{"OBJECTID":134,"School_Name":"Covenant Christian School","Street_Address":"Woodcock Drive","Suburb":"Gordon","Sector":"Non-Government","Type_":"Independent Christian","LAT":-35.439222000000001,"LONG_":149.090709,"BUFF_DIST":100,"ORIG_FID":134,"Shape_Length":628.31853071795865,"Shape_Area":31415.926535897932},"geometry":{"curveRings":[[[16596701.807899997,-4198854.6416999996],{"a":[[16596701.807899997,-4198854.6416999996],[16596701.807899997,-4198954.6416999996],0,1]}]]}},{"attributes":{"OBJECTID":135,"School_Name":"Daramalan College","Street_Address":"Cowper Street","Suburb":"Dickson","Sector":"Non-Government","Type_":"Independent Catholic","LAT":-35.253518,"LONG_":149.13869500000001,"BUFF_DIST":100,"ORIG_FID":135,"Shape_Length":628.31853071795865,"Shape_Area":31415.926535897932},"geometry":{"curveRings":[[[16602043.585000001,-4173623.5777000003],{"a":[[16602043.585000001,-4173623.5777000003],[16602043.585000001,-4173723.5777000003],0,1]}]]}},{"attributes":{"OBJECTID":136,"School_Name":"Emmaus Christian School","Street_Address":"Davenport Street","Suburb":"Dickson","Sector":"Non-Government","Type_":"Independent Christian","LAT":-35.253354999999999,"LONG_":149.14281800000001,"BUFF_DIST":100,"ORIG_FID":136,"Shape_Length":628.31853071795865,"Shape_Area":31415.926535897932},"geometry":{"curveRings":[[[16602502.555200003,-4173601.4569999985],{"a":[[16602502.555200003,-4173601.4569999985],[16602502.555200003,-4173701.4569999985],0,1]}]]}},{"attributes":{"OBJECTID":137,"School_Name":"Good Shepherd Primary School","Street_Address":"Burdekin Avenue","Suburb":"Amaroo","Sector":"Non-Government","Type_":"Catholic systemic","LAT":-35.166843,"LONG_":149.12392199999999,"BUFF_DIST":100,"ORIG_FID":137,"Shape_Length":628.31853071795865,"Shape_Area":31415.926535897932},"geometry":{"curveRings":[[[16600399.062100001,-4161867.2683999985],{"a":[[16600399.062100001,-4161867.2683999985],[16600399.062100001,-4161967.2683999985],0,1]}]]}},{"attributes":{"OBJECTID":138,"School_Name":"Holy Family Parish Primary","Street_Address":"Castleton Crescent","Suburb":"Gowrie","Sector":"Non-Government","Type_":"Catholic systemic","LAT":-35.410300999999997,"LONG_":149.11655200000001,"BUFF_DIST":100,"ORIG_FID":138,"Shape_Length":628.31853071795865,"Shape_Area":31415.926535897932},"geometry":{"curveRings":[[[16599578.637500003,-4194921.3781000003],{"a":[[16599578.637500003,-4194921.3781000003],[16599578.637500003,-4195021.3781000003],0,1]}]]}},{"attributes":{"OBJECTID":139,"School_Name":"Holy Spirit Primary","Street_Address":"Kelleway Avenue","Suburb":"Nicholls","Sector":"Non-Government","Type_":"Catholic systemic","LAT":-35.180245999999997,"LONG_":149.101809,"BUFF_DIST":100,"ORIG_FID":139,"Shape_Length":628.31853071795865,"Shape_Area":31415.926535897932},"geometry":{"curveRings":[[[16597937.4542,-4163684.3795000017],{"a":[[16597937.4542,-4163684.3795000017],[16597937.4542,-4163784.3795000017],0,1]}]]}},{"attributes":{"OBJECTID":140,"School_Name":"Holy Trinity Primary","Street_Address":"Theodore Street","Suburb":"Curtin","Sector":"Non-Government","Type_":"Catholic systemic","LAT":-35.327679000000003,"LONG_":149.081951,"BUFF_DIST":100,"ORIG_FID":140,"Shape_Length":628.31853071795865,"Shape_Area":31415.926535897932},"geometry":{"curveRings":[[[16595726.871799998,-4183692.6013999991],{"a":[[16595726.871799998,-4183692.6013999991],[16595726.871799998,-4183792.6013999991],0,1]}]]}},{"attributes":{"OBJECTID":141,"School_Name":"Islamic School of Canberra","Street_Address":"Heysen Street","Suburb":"Weston","Sector":"Non-Government","Type_":"Independent Islamic","LAT":-35.240588000000002,"LONG_":149.15037000000001,"BUFF_DIST":100,"ORIG_FID":141,"Shape_Length":628.31853071795865,"Shape_Area":31415.926535897932},"geometry":{"curveRings":[[[16603343.240000002,-4171868.9913999997],{"a":[[16603343.240000002,-4171868.9913999997],[16603343.240000002,-4171968.9913999997],0,1]}]]}},{"attributes":{"OBJECTID":142,"School_Name":"Marist College Canberra","Street_Address":"Marr Street","Suburb":"Pearce","Sector":"Non-Government","Type_":"Independent Islamic","LAT":-35.357959000000001,"LONG_":149.088697,"BUFF_DIST":100,"ORIG_FID":142,"Shape_Length":628.31853071795865,"Shape_Area":31415.926535897932},"geometry":{"curveRings":[[[16596477.833099999,-4187806.4712000005],{"a":[[16596477.833099999,-4187806.4712000005],[16596477.833099999,-4187906.4712000005],0,1]}]]}},{"attributes":{"OBJECTID":143,"School_Name":"Merici College","Street_Address":"Wise Street","Suburb":"Braddon","Sector":"Non-Government","Type_":"Catholic systemic","LAT":-35.266525000000001,"LONG_":149.13703699999999,"BUFF_DIST":100,"ORIG_FID":143,"Shape_Length":628.31853071795865,"Shape_Area":31415.926535897932},"geometry":{"curveRings":[[[16601859.017300002,-4175388.8977000006],{"a":[[16601859.017300002,-4175388.8977000006],[16601859.017300002,-4175488.8977000006],0,1]}]]}},{"attributes":{"OBJECTID":144,"School_Name":"Orana Steiner School","Street_Address":"Unwin Place","Suburb":"Weston","Sector":"Non-Government","Type_":"Independent Steiner","LAT":-35.327857999999999,"LONG_":149.05894900000001,"BUFF_DIST":100,"ORIG_FID":144,"Shape_Length":628.31853071795865,"Shape_Area":31415.926535897932},"geometry":{"curveRings":[[[16593166.300899997,-4183716.9158999994],{"a":[[16593166.300899997,-4183716.9158999994],[16593166.300899997,-4183816.9158999994],0,1]}]]}},{"attributes":{"OBJECTID":145,"School_Name":"Radford College","Street_Address":"College Street","Suburb":"Bruce","Sector":"Non-Government","Type_":"Independent Anglican","LAT":-35.243502999999997,"LONG_":149.08932300000001,"BUFF_DIST":100,"ORIG_FID":145,"Shape_Length":628.31853071795865,"Shape_Area":31415.926535897932},"geometry":{"curveRings":[[[16596547.519100003,-4172264.5289000012],{"a":[[16596547.519100003,-4172264.5289000012],[16596547.519100003,-4172364.5289000012],0,1]}]]}},{"attributes":{"OBJECTID":146,"School_Name":"Rosary Primary","Street_Address":"Fleming Street","Suburb":"Watson","Sector":"Non-Government","Type_":"Catholic systemic","LAT":-35.246409999999997,"LONG_":149.15468200000001,"BUFF_DIST":100,"ORIG_FID":146,"Shape_Length":628.31853071795865,"Shape_Area":31415.926535897932},"geometry":{"curveRings":[[[16603823.249700002,-4172658.9952000007],{"a":[[16603823.249700002,-4172658.9952000007],[16603823.249700002,-4172758.9952000007],0,1]}]]}},{"attributes":{"OBJECTID":147,"School_Name":"Sacred Heart Primary","Street_Address":"Murphy Street","Suburb":"Pearce","Sector":"Non-Government","Type_":"Catholic systemic","LAT":-35.366936000000003,"LONG_":149.08439100000001,"BUFF_DIST":100,"ORIG_FID":147,"Shape_Length":628.31853071795865,"Shape_Area":31415.926535897932},"geometry":{"curveRings":[[[16595998.491300002,-4189026.3940999992],{"a":[[16595998.491300002,-4189026.3940999992],[16595998.491300002,-4189126.3940999992],0,1]}]]}},{"attributes":{"OBJECTID":148,"School_Name":"St Anthony's Primary","Street_Address":"Wheeler Crescent","Suburb":"Wanniassa","Sector":"Non-Government","Type_":"Catholic systemic","LAT":-35.394049000000003,"LONG_":149.08008599999999,"BUFF_DIST":100,"ORIG_FID":148,"Shape_Length":628.31853071795865,"Shape_Area":31415.926535897932},"geometry":{"curveRings":[[[16595519.260899998,-4192711.7267999984],{"a":[[16595519.260899998,-4192711.7267999984],[16595519.260899998,-4192811.7267999984],0,1]}]]}},{"attributes":{"OBJECTID":149,"School_Name":"St Bede's Primary","Street_Address":"Nuyts Street","Suburb":"Red Hill","Sector":"Non-Government","Type_":"Catholic systemic","LAT":-35.338847000000001,"LONG_":149.12878799999999,"BUFF_DIST":100,"ORIG_FID":149,"Shape_Length":628.31853071795865,"Shape_Area":31415.926535897932},"geometry":{"curveRings":[[[16600940.742799997,-4185209.7155000009],{"a":[[16600940.742799997,-4185209.7155000009],[16600940.742799997,-4185309.7155000009],0,1]}]]}},{"attributes":{"OBJECTID":150,"School_Name":"St Benedict's Primary","Street_Address":"Tallara Parkway","Suburb":"Narrabundah","Sector":"Non-Government","Type_":"Catholic systemic","LAT":-35.334829999999997,"LONG_":149.148034,"BUFF_DIST":100,"ORIG_FID":150,"Shape_Length":628.31853071795865,"Shape_Area":31415.926535897932},"geometry":{"curveRings":[[[16603083.197700001,-4184664.002799999],{"a":[[16603083.197700001,-4184664.002799999],[16603083.197700001,-4184764.002799999],0,1]}]]}},{"attributes":{"OBJECTID":151,"School_Name":"St Clare of Assisi Primary","Street_Address":"Heidelberg Street","Suburb":"Conder","Sector":"Non-Government","Type_":"Catholic systemic","LAT":-35.457909999999998,"LONG_":149.096766,"BUFF_DIST":100,"ORIG_FID":151,"Shape_Length":628.31853071795865,"Shape_Area":31415.926535897932},"geometry":{"curveRings":[[[16597376.07,-4201396.9728000015],{"a":[[16597376.07,-4201396.9728000015],[16597376.07,-4201496.9728000015],0,1]}]]}},{"attributes":{"OBJECTID":152,"School_Name":"St Clare's College","Street_Address":"McMillan Crescent","Suburb":"Griffith","Sector":"Non-Government","Type_":"Catholic systemic","LAT":-35.323929,"LONG_":149.14765,"BUFF_DIST":100,"ORIG_FID":152,"Shape_Length":628.31853071795865,"Shape_Area":31415.926535897932},"geometry":{"curveRings":[[[16603040.450999998,-4183183.2309999987],{"a":[[16603040.450999998,-4183183.2309999987],[16603040.450999998,-4183283.2309999987],0,1]}]]}},{"attributes":{"OBJECTID":153,"School_Name":"St Edmund's College","Street_Address":"Canberra Avenue","Suburb":"Griffith","Sector":"Non-Government","Type_":"Independent Catholic","LAT":-35.32282,"LONG_":149.14424199999999,"BUFF_DIST":100,"ORIG_FID":153,"Shape_Length":628.31853071795865,"Shape_Area":31415.926535897932},"geometry":{"curveRings":[[[16602661.074199997,-4183032.5978000015],{"a":[[16602661.074199997,-4183032.5978000015],[16602661.074199997,-4183132.5978000015],0,1]}]]}},{"attributes":{"OBJECTID":154,"School_Name":"St Francis of Assisi Primary","Street_Address":"Casey Crescent","Suburb":"Calwell","Sector":"Non-Government","Type_":"Catholic systemic","LAT":-35.440798999999998,"LONG_":149.11959300000001,"BUFF_DIST":100,"ORIG_FID":154,"Shape_Length":628.31853071795865,"Shape_Area":31415.926535897932},"geometry":{"curveRings":[[[16599917.160099998,-4199069.1550999992],{"a":[[16599917.160099998,-4199069.1550999992],[16599917.160099998,-4199169.1550999992],0,1]}]]}},{"attributes":{"OBJECTID":155,"School_Name":"St Francis Xavier College","Street_Address":"Barnard Circuit","Suburb":"Florey","Sector":"Non-Government","Type_":"Catholic systemic","LAT":-35.223979,"LONG_":149.040615,"BUFF_DIST":100,"ORIG_FID":155,"Shape_Length":628.31853071795865,"Shape_Area":31415.926535897932},"geometry":{"curveRings":[[[16591125.3693,-4169615.5830999985],{"a":[[16591125.3693,-4169615.5830999985],[16591125.3693,-4169715.5830999985],0,1]}]]}},{"attributes":{"OBJECTID":156,"School_Name":"St John the Apostle Primary","Street_Address":"Pawsey Circuit","Suburb":"Florey","Sector":"Non-Government","Type_":"Catholic systemic","LAT":-35.225664000000002,"LONG_":149.041696,"BUFF_DIST":100,"ORIG_FID":156,"Shape_Length":628.31853071795865,"Shape_Area":31415.926535897932},"geometry":{"curveRings":[[[16591245.705700003,-4169844.1724000014],{"a":[[16591245.705700003,-4169844.1724000014],[16591245.705700003,-4169944.1724000014],0,1]}]]}},{"attributes":{"OBJECTID":157,"School_Name":"St John Vianney's Primary","Street_Address":"Namatjira Drive","Suburb":"Waramanga","Sector":"Non-Government","Type_":"Catholic systemic","LAT":-35.351056999999997,"LONG_":149.05555899999999,"BUFF_DIST":100,"ORIG_FID":157,"Shape_Length":628.31853071795865,"Shape_Area":31415.926535897932},"geometry":{"curveRings":[[[16592788.9278,-4186868.6220000014],{"a":[[16592788.9278,-4186868.6220000014],[16592788.9278,-4186968.6220000014],0,1]}]]}},{"attributes":{"OBJECTID":158,"School_Name":"St Joseph's Primary","Street_Address":"Boronia Drive","Suburb":"O'Connor","Sector":"Non-Government","Type_":"Catholic systemic","LAT":-35.259647999999999,"LONG_":149.126375,"BUFF_DIST":100,"ORIG_FID":158,"Shape_Length":628.31853071795865,"Shape_Area":31415.926535897932},"geometry":{"curveRings":[[[16600672.128799997,-4174455.510400001],{"a":[[16600672.128799997,-4174455.510400001],[16600672.128799997,-4174555.510400001],0,1]}]]}},{"attributes":{"OBJECTID":159,"School_Name":"St Jude's Primary","Street_Address":"Mulley Street","Suburb":"Holder","Sector":"Non-Government","Type_":"Catholic systemic","LAT":-35.333941000000003,"LONG_":149.04981900000001,"BUFF_DIST":100,"ORIG_FID":159,"Shape_Length":628.31853071795865,"Shape_Area":31415.926535897932},"geometry":{"curveRings":[[[16592149.953900002,-4184543.2351999991],{"a":[[16592149.953900002,-4184543.2351999991],[16592149.953900002,-4184643.2351999991],0,1]}]]}},{"attributes":{"OBJECTID":160,"School_Name":"St Mary MacKillop College - Isabella Plains Campus","Street_Address":"Ellerston Avenue","Suburb":"Isabella Plains","Sector":"Non-Government","Type_":"Catholic systemic","LAT":-35.404922999999997,"LONG_":149.089258,"BUFF_DIST":100,"ORIG_FID":160,"Shape_Length":628.31853071795865,"Shape_Area":31415.926535897932},"geometry":{"curveRings":[[[16596540.283299997,-4194190.1257999986],{"a":[[16596540.283299997,-4194190.1257999986],[16596540.283299997,-4194290.1257999986],0,1]}]]}},{"attributes":{"OBJECTID":161,"School_Name":"St Mary MacKillop College - Wanniassa Campus","Street_Address":"Mackinnon Street","Suburb":"Wanniassa","Sector":"Non-Government","Type_":"Catholic systemic","LAT":-35.404922999999997,"LONG_":149.089258,"BUFF_DIST":100,"ORIG_FID":161,"Shape_Length":628.31853071795865,"Shape_Area":31415.926535897932},"geometry":{"curveRings":[[[16596540.283299997,-4194190.1257999986],{"a":[[16596540.283299997,-4194190.1257999986],[16596540.283299997,-4194290.1257999986],0,1]}]]}},{"attributes":{"OBJECTID":162,"School_Name":"St Matthew's Primary","Street_Address":"Stutchbury Street","Suburb":"Page","Sector":"Non-Government","Type_":"Catholic systemic","LAT":-35.240755,"LONG_":149.04155499999999,"BUFF_DIST":100,"ORIG_FID":162,"Shape_Length":628.31853071795865,"Shape_Area":31415.926535897932},"geometry":{"curveRings":[[[16591230.009599999,-4171891.6512999982],{"a":[[16591230.009599999,-4171891.6512999982],[16591230.009599999,-4171991.6512999982],0,1]}]]}},{"attributes":{"OBJECTID":163,"School_Name":"St Michael's Primary","Street_Address":"Tyrell Circuit","Suburb":"Kaleen","Sector":"Non-Government","Type_":"Catholic systemic","LAT":-35.223474000000003,"LONG_":149.10970699999999,"BUFF_DIST":100,"ORIG_FID":163,"Shape_Length":628.31853071795865,"Shape_Area":31415.926535897932},"geometry":{"curveRings":[[[16598816.655599996,-4169547.0749999993],{"a":[[16598816.655599996,-4169547.0749999993],[16598816.655599996,-4169647.0749999993],0,1]}]]}},{"attributes":{"OBJECTID":164,"School_Name":"St Monica's Primary","Street_Address":"Moynihan Street","Suburb":"Evatt","Sector":"Non-Government","Type_":"Catholic systemic","LAT":-35.213524999999997,"LONG_":149.06128899999999,"BUFF_DIST":100,"ORIG_FID":164,"Shape_Length":628.31853071795865,"Shape_Area":31415.926535897932},"geometry":{"curveRings":[[[16593426.788500004,-4168197.4864000008],{"a":[[16593426.788500004,-4168197.4864000008],[16593426.788500004,-4168297.4864000008],0,1]}]]}},{"attributes":{"OBJECTID":165,"School_Name":"St's Peter & Paul","Street_Address":"Wisdom Street","Suburb":"Garran","Sector":"Non-Government","Type_":"Catholic systemic","LAT":-35.339376000000001,"LONG_":149.09273200000001,"BUFF_DIST":100,"ORIG_FID":165,"Shape_Length":628.31853071795865,"Shape_Area":31415.926535897932},"geometry":{"curveRings":[[[16596927.007200003,-4185281.5826000012],{"a":[[16596927.007200003,-4185281.5826000012],[16596927.007200003,-4185381.5826000012],0,1]}]]}},{"attributes":{"OBJECTID":166,"School_Name":"St Thomas Aquinas Primary","Street_Address":"Lhotsky Street","Suburb":"Charnwood","Sector":"Non-Government","Type_":"Catholic systemic","LAT":-35.205120999999998,"LONG_":149.02963800000001,"BUFF_DIST":100,"ORIG_FID":166,"Shape_Length":628.31853071795865,"Shape_Area":31415.926535897932},"geometry":{"curveRings":[[[16589903.415299997,-4167057.6081000008],{"a":[[16589903.415299997,-4167057.6081000008],[16589903.415299997,-4167157.6081000008],0,1]}]]}},{"attributes":{"OBJECTID":167,"School_Name":"St Thomas More's Primary","Street_Address":"White Crescent","Suburb":"Campbell","Sector":"Non-Government","Type_":"Catholic systemic","LAT":-35.286717000000003,"LONG_":149.156836,"BUFF_DIST":100,"ORIG_FID":167,"Shape_Length":628.31853071795865,"Shape_Area":31415.926535897932},"geometry":{"curveRings":[[[16604063.031900004,-4178129.938099999],{"a":[[16604063.031900004,-4178129.938099999],[16604063.031900004,-4178229.938099999],0,1]}]]}},{"attributes":{"OBJECTID":168,"School_Name":"St Thomas the Apostle Primary","Street_Address":"Boddington Crescent","Suburb":"Kambah","Sector":"Non-Government","Type_":"Catholic systemic","LAT":-35.382449000000001,"LONG_":149.05197699999999,"BUFF_DIST":100,"ORIG_FID":168,"Shape_Length":628.31853071795865,"Shape_Area":31415.926535897932},"geometry":{"curveRings":[[[16592390.181400001,-4191134.8447000012],{"a":[[16592390.181400001,-4191134.8447000012],[16592390.181400001,-4191234.8447000012],0,1]}]]}},{"attributes":{"OBJECTID":169,"School_Name":"St Vincent's Primary","Street_Address":"Bindel Street","Suburb":"Aranda","Sector":"Non-Government","Type_":"Catholic systemic","LAT":-35.254992999999999,"LONG_":149.076661,"BUFF_DIST":100,"ORIG_FID":169,"Shape_Length":628.31853071795865,"Shape_Area":31415.926535897932},"geometry":{"curveRings":[[[16595137.991700001,-4173823.7514000013],{"a":[[16595137.991700001,-4173823.7514000013],[16595137.991700001,-4173923.7514000013],0,1]}]]}},{"attributes":{"OBJECTID":170,"School_Name":"The Galilee School","Street_Address":"PO Box 1066","Suburb":"Tuggeranong","Sector":"Non-Government","Type_":"Independent Special Assistance School","LAT":-35.380777999999999,"LONG_":149.035968,"BUFF_DIST":100,"ORIG_FID":170,"Shape_Length":628.31853071795865,"Shape_Area":31415.926535897932},"geometry":{"curveRings":[[[16590608.067599997,-4190907.7109000012],{"a":[[16590608.067599997,-4190907.7109000012],[16590608.067599997,-4191007.7109000012],0,1]}]]}},{"attributes":{"OBJECTID":171,"School_Name":"Trinity Christian School","Street_Address":"McBryde Crescent","Suburb":"Wanniassa","Sector":"Non-Government","Type_":"Independent Christian","LAT":-35.408265,"LONG_":149.086051,"BUFF_DIST":100,"ORIG_FID":171,"Shape_Length":628.31853071795865,"Shape_Area":31415.926535897932},"geometry":{"curveRings":[[[16596183.2817,-4194644.5351999998],{"a":[[16596183.2817,-4194644.5351999998],[16596183.2817,-4194744.5351999998],0,1]}]]}}]}